{
  "size": 1251,
  "offset": 0,
  "institutions": [
    {
      "name": "Abenteuermuseum Saarbrücken",
      "id": "2GJUO7RSKB56546VZZIK5GN7GZUYU5L3",
      "latitude": "49.2401572",
      "longitude": "6.9969327",
      "sector": "sec_06"
    },
    {
      "name": "Adveniat-Bibliothek",
      "id": "S4RC3GUO3BPGUHLYYYXIFKL2CHQQKD2W",
      "latitude": "51.45427",
      "longitude": "7.01546",
      "sector": "sec_02"
    },
    {
      "name": "Akademie der Wissenschaften in Hamburg",
      "id": "L4CPXD3O2CRKVWVZ5ZCWTIAOA4UT3TPE",
      "latitude": "53.562655",
      "longitude": "9.987817",
      "sector": "sec_04"
    },
    {
      "name": "Albert-Ludwigs-Universität. Universitätsarchiv",
      "id": "JWBEKCSKBDEMBMC2D4VBF7BM4PKIQLXR",
      "children": [
        {
          "name": "Uniseum der Albert-Ludwigs-Universität",
          "id": "T2RKN75ULJFTCAS7TWIZASR72TZTW2EF",
          "latitude": "47.995409",
          "longitude": "7.8489562",
          "sector": "sec_06"
        }
      ],
      "latitude": "47.99254",
      "longitude": "7.84498",
      "sector": "sec_01"
    },
    {
      "name": "Alemannisches Institut Freiburg im Breisgau e.V.",
      "id": "WEVZTYMZKPRKULXN22O4BGBS3N3D3ZOR",
      "children": [
        {
          "name": "Alemannisches Institut, Arbeitsgruppe Tübingen",
          "id": "MXKPZWYNEUUZCDLAU4U5LCJJSUE2CUAH",
          "latitude": "48.5260861",
          "longitude": "9.0619226",
          "sector": "sec_04"
        }
      ],
      "latitude": "47.995737",
      "longitude": "7.8447692",
      "sector": "sec_04"
    },
    {
      "name": "Alpines Museum des DAV",
      "id": "5TUIDBWGTQL4C2V6USI4L3HLLBHF7KXY",
      "latitude": "48.1352079",
      "longitude": "11.5889841",
      "sector": "sec_06"
    },
    {
      "name": "Alt-Arnstorf-Haus",
      "id": "JQADKD72P4O67OG7KERDZB4OQY4P5FRP",
      "children": [
        {
          "name": "Gollwitzer-Photoglasplattensammlung",
          "id": "UP63QLFLIUQHB2KXMOHBLHGVXBBLICRZ",
          "latitude": "48.56073",
          "longitude": "12.81708",
          "sector": "sec_01"
        }
      ],
      "latitude": "48.5601145",
      "longitude": "12.8193494",
      "sector": "sec_06"
    },
    {
      "name": "Alte Synagoge Erfurt",
      "id": "MD2DWGL7HPIUNRYZBFJU7BGIJJBIPWRJ",
      "children": [
        {
          "name": "Mittelalterliche Mikwe",
          "id": "2WJUNR6YRG6QXUUAQJUFRJTY7XUGBKFM",
          "latitude": "50.9789169",
          "longitude": "11.0299008",
          "sector": "sec_06"
        }
      ],
      "latitude": "50.97913",
      "longitude": "11.02724",
      "sector": "sec_06"
    },
    {
      "name": "Alte Wissenschafltiche Bibliothek der Heilanstalt bei Konstanz",
      "id": "UIZR3MGJB7QFU56RQWGD6D47EKIZM75X",
      "latitude": "47.6930878",
      "longitude": "9.1277557",
      "sector": "sec_02"
    },
    {
      "name": "Altfriesisches Haus",
      "id": "LVVLP6X3M7NEQ3M65JO6R35G5P3D3RUZ",
      "latitude": "54.89556",
      "longitude": "8.37252",
      "sector": "sec_06"
    },
    {
      "name": "Altonaer Museum für Kunst und Kulturgeschichte",
      "id": "7EESEDANEJLFF2VLDXI7R5H6A7B5L4KY",
      "latitude": "53.5489838",
      "longitude": "9.934634",
      "sector": "sec_06"
    },
    {
      "name": "Alt-Segeberger Bürgerhaus",
      "id": "D7KISL6TVJVKW5EJYK5MERZCPLFY7MXL",
      "latitude": "53.9364096",
      "longitude": "10.3139819",
      "sector": "sec_06"
    },
    {
      "name": "Amrumer Museum und Windmühle",
      "id": "FWB4TLCMEZEF56ZQLM6OAGVGIW6PG2BT",
      "latitude": "54.6517452",
      "longitude": "8.3542553",
      "sector": "sec_06"
    },
    {
      "name": "Amt für Stadtentwicklung und Statistik Köln",
      "id": "3DEFFLVGDUITTZIJNLFGIT3Z4VBVOJR3",
      "latitude": "50.9391323",
      "longitude": "6.9803427",
      "sector": "sec_02"
    },
    {
      "name": "Angelner Dampfeisenbahn",
      "id": "SC4YSFVK3IAGVIMW6QEGCAXR4QV6US4D",
      "latitude": "54.66016",
      "longitude": "9.93415",
      "sector": "sec_06"
    },
    {
      "name": "Angermuseum Erfurt",
      "id": "PWUK5QTD3GS74HWNTHZT44URS4HJWYNU",
      "latitude": "50.9757966",
      "longitude": "11.0341295",
      "sector": "sec_06"
    },
    {
      "name": "Angewandte Medizintechnik",
      "id": "QXIF2XRYDEWHQYBA4DSH5NUS3Q6DTESY",
      "latitude": "50.7758657",
      "longitude": "6.0476287",
      "sector": "sec_04"
    },
    {
      "name": "Antifaschistisches Pressearchiv und Bildungszentrum Berlin",
      "id": "W4KFMZWKY2PQRE7NUF75J437A2ULDHPQ",
      "latitude": "52.49741",
      "longitude": "13.42848",
      "sector": "sec_01"
    },
    {
      "name": "Antikensammlung",
      "id": "SCYAIKX6GYIRRNBT2TOMLQCITY723EP2",
      "latitude": "54.32837",
      "longitude": "10.14594",
      "sector": "sec_06"
    },
    {
      "name": "Antikriegshaus Sievershausen",
      "id": "VIL5WTFLO7SSO2CO4TU7C4XBSN3KD3ZV",
      "latitude": "52.37426",
      "longitude": "10.12984",
      "sector": "sec_07"
    },
    {
      "name": "Aquarius Wassermuseum",
      "id": "ZDOG7YVIUXSRWDZPDN2HD34WK22MIB7U",
      "latitude": "51.4430795",
      "longitude": "6.8559416",
      "sector": "sec_06"
    },
    {
      "name": "Arbeiter-Samariter-Bund Deutschland e.V., Archiv",
      "id": "UYUQX7NJYTPJKK2QUTCMXGALFXBKYZ5S",
      "latitude": "50.9190764",
      "longitude": "6.9215907",
      "sector": "sec_01"
    },
    {
      "name": "Archäologisches Landesmuseum",
      "id": "JXBEKG5F2RGNO5TONUELCSTRMQKUGW7V",
      "latitude": "0.0",
      "longitude": "0.0",
      "sector": "sec_06"
    },
    {
      "name": "Archäologisches Landesmuseum Baden-Württemberg (Bibliothek)",
      "id": "DB6W2OAKUINKTRZTKOO7RPIMQSQN2HT4",
      "latitude": "47.6684842",
      "longitude": "9.178432",
      "sector": "sec_06"
    },
    {
      "name": "Archäologisches Museum Hamburg | Helms-Museum",
      "id": "T6SDUOSRRVEPVF6SPP6RAICGOLV427R3",
      "latitude": "53.45868",
      "longitude": "9.97889",
      "sector": "sec_06"
    },
    {
      "name": "Archäologische Staatssammlung",
      "id": "NL3QRS6SOQEREEZLCBEMETQ23QZORW7R",
      "children": [
        {
          "name": "Archäologie-Museum Oberfranken im Pfalzmuseum Forchheim",
          "id": "PCEOEDUS224CGOYBBK5YGCEX6QUSDMFL",
          "latitude": "49.72024",
          "longitude": "11.05517",
          "sector": "sec_06"
        },
        {
          "name": "Archäologie-Museum Schloss Neuburg an der Donau",
          "id": "2XB5VNVU3LM4XIPCPCWG6JGC7Q2BXQRE",
          "latitude": "48.7302674",
          "longitude": "11.1887693",
          "sector": "sec_06"
        },
        {
          "name": "Archäologie-Museum im Fränkischen Freilandmuseum Bad Windsheim",
          "id": "TMRKKZRJFUCA57Y6PZZWR6DZ5T7YMENC",
          "latitude": "49.49547",
          "longitude": "10.41582",
          "sector": "sec_06"
        },
        {
          "name": "Archäologisches Museum Bad Königshofen im Grabfeld",
          "id": "LGYED6DKPIMIJQS4EM53L2S37AIGGFUN",
          "latitude": "50.2996943",
          "longitude": "10.4686013",
          "sector": "sec_06"
        },
        {
          "name": "Archäologisches Museum der Oberpfalz Amberg",
          "id": "47LQP3K4OEHOVJEQCSD3Q4EOQI7U7ITD",
          "latitude": "49.44397",
          "longitude": "11.85951",
          "sector": "sec_06"
        },
        {
          "name": "Burgmuseum Grünwald",
          "id": "4C5TQHE6ULPK2OBRSMZ5AN4FGOV4PFMG",
          "latitude": "48.04286",
          "longitude": "11.51941",
          "sector": "sec_06"
        },
        {
          "name": "Niederbayerisches Archäologie-Museum Landau",
          "id": "277572BFPGVCXI545ZKQPZ5RAN4JICQV",
          "latitude": "48.6686682",
          "longitude": "12.6903315",
          "sector": "sec_06"
        },
        {
          "name": "Römermuseum Weißenburg",
          "id": "BOJ53K6VTLCTOKHY5GOF5WSSNZPKMIXS",
          "latitude": "49.0315392",
          "longitude": "10.9706649",
          "sector": "sec_06"
        },
        {
          "name": "Südschwäbisches Archäologiemuseum Mindelheim",
          "id": "QWAXJN3WBE6OLGNU3H5WMC6MEO7OX2YE",
          "latitude": "48.0461",
          "longitude": "10.48528",
          "sector": "sec_06"
        },
        {
          "name": "Wittelsbacher Museum Aichach",
          "id": "FXLBHNLPU2Q5EL5SVH6HVDVJE22ENRIO",
          "latitude": "48.460292",
          "longitude": "11.1323735",
          "sector": "sec_06"
        },
        {
          "name": "kelten römer museum manching",
          "id": "S6F7MNLPZBOKWJPI6MLEXQGQNHS57RSM",
          "latitude": "48.71278",
          "longitude": "11.49251",
          "sector": "sec_06"
        }
      ],
      "latitude": "48.14397",
      "longitude": "11.59119",
      "sector": "sec_06"
    },
    {
      "name": "Archäologisch-Ökologisches Zentrum Albersdorf (AÖZA gGmbH)",
      "id": "LRV3GRBJFAHST2VSSY5MGSZ4DNOW72K7",
      "latitude": "54.14613",
      "longitude": "9.28817",
      "sector": "sec_06"
    },
    {
      "name": "Arche Warder",
      "id": "5PWWGSDKL6EPXMVLKAEQFBZ6A5PXEML5",
      "latitude": "54.214709",
      "longitude": "9.9069203",
      "sector": "sec_06"
    },
    {
      "name": "Archivberatungsstelle Hessen",
      "id": "4TM67YTV44OG77HNA6AMLLUKLSYDVFX3",
      "latitude": "49.8746322",
      "longitude": "8.6565615",
      "sector": "sec_01"
    },
    {
      "name": "Archiv der deutschen Frauenbewegung",
      "id": "Z3NK5X6LD3MAYTHUL46UFFGU3OR4PPA6",
      "latitude": "51.3259448",
      "longitude": "9.5036038",
      "sector": "sec_01"
    },
    {
      "name": "Archiv der Hansestadt Lübeck",
      "id": "YGALC5ZF7PGZ24USUHP5UIVNLFRK7EOT",
      "latitude": "53.8602821",
      "longitude": "10.6848327",
      "sector": "sec_01"
    },
    {
      "name": "Archiv der Hansestadt Wismar",
      "id": "ZYDP3SGUUVCR2Y5XD43PHPPO7F2AYHJ6",
      "latitude": "53.89269",
      "longitude": "11.46828",
      "sector": "sec_01"
    },
    {
      "name": "Archiv der Stadt Troisdorf",
      "id": "ZNQZSCJ6AUALFN2NDNJLFX3UIRY6EKSV",
      "latitude": "50.81689",
      "longitude": "7.14843",
      "sector": "sec_01"
    },
    {
      "name": "Archiv der Stadtverwaltung Neu-Isenburg",
      "id": "FYYZIDDLNCHR3LAFSXUXSZ6ZZYPKCMY4",
      "latitude": "50.0546025",
      "longitude": "8.6897939",
      "sector": "sec_01"
    },
    {
      "name": "Archiv der Vereinten Dienstleistungsgewerkschaft (ver.di)",
      "id": "IBTY3NTPEV5J5FACFTHMYZET4DQ3OPB5",
      "latitude": "52.50873",
      "longitude": "13.4281",
      "sector": "sec_01"
    },
    {
      "name": "Archiv des Bistums Passau",
      "id": "FAOTQ47L7ESJLF3OOR4HQOXVRKFOA2F4",
      "latitude": "48.5749513",
      "longitude": "13.4629758",
      "sector": "sec_01"
    },
    {
      "name": "Archiv des Deutschen Caritasverbandes e.V.",
      "id": "K4QHLBZUSDH3U5DKZSPC67SWP3H2RCQL",
      "latitude": "48.00418",
      "longitude": "7.85667",
      "sector": "sec_01"
    },
    {
      "name": "Archiv des Landkreises Cuxhaven",
      "id": "LYPMAY4PNOZM35GU5MNQ27PNR4YQB5WM",
      "latitude": "53.8077521",
      "longitude": "8.9013816",
      "sector": "sec_01"
    },
    {
      "name": "Archiv des Main-Tauber-Kreises",
      "id": "2MK3EFOXNUNOKZ2HQIYRW4CG2A56H7L2",
      "latitude": "49.71193",
      "longitude": "9.54861",
      "sector": "sec_01"
    },
    {
      "name": "Archiv für Christlich-Soziale Politik (ACSP) der Hanns-Seidel-Stiftung e.V.",
      "id": "MTFTYW2XC7HPCOMSKHPH26YYXCQ57UOZ",
      "children": [
        {
          "name": "Politisch-historische Fachbibliothek der Hanns-Seidel-Stiftung",
          "id": "MVEZAY7CVRPPCDIGLHD7GCTKNVJIYZCK",
          "latitude": "48.1526907",
          "longitude": "11.5473886",
          "sector": "sec_01"
        }
      ],
      "latitude": "48.1526907",
      "longitude": "11.5473886",
      "sector": "sec_01"
    },
    {
      "name": "Archiv Mission EineWelt, Centrum für Partnerschaft, Entwicklung und Mission der Evangelisch-Lutherischen Kirche in Bayern",
      "id": "UNXLQP6VDPESRIDQFYDQFMHLNYC42EY7",
      "latitude": "49.28754",
      "longitude": "10.78748",
      "sector": "sec_01"
    },
    {
      "name": "Archivschule Marburg",
      "id": "677CUAXM5DI4OI73BKCNDQ7CH5C7AOTB",
      "latitude": "50.803585",
      "longitude": "8.7637541",
      "sector": "sec_01"
    },
    {
      "name": "Archiv soziale Bewegungen in Baden e.V.",
      "id": "IFNX4C7IU5O3T336MEM3IOXQ2G4OPTIF",
      "latitude": "47.9929613",
      "longitude": "7.8405566",
      "sector": "sec_01"
    },
    {
      "name": "Archiv und Bücherei im AllerWeltHaus Hagen",
      "id": "IEWGUCNDTRSDJCOBG5T372JXKXCJLB7Z",
      "latitude": "51.35818",
      "longitude": "7.47711",
      "sector": "sec_02"
    },
    {
      "name": "Archiv und Dokumentationszentrum für Alphabetisierung und Grundbildung",
      "id": "ZBXKB6BJ765N6TOSLB5WTIVAEP7VGA3W",
      "latitude": "51.9566371",
      "longitude": "7.6334113",
      "sector": "sec_01"
    },
    {
      "name": "Archiv- und Museumsstiftung der VEM. Stiftung für interkulturelle Forschung, Missions- und Religionswissenschaft",
      "id": "ZGNECNRN4J7KROLARZHX2WPRC4ESKHSK",
      "children": [
        {
          "name": "AMS der VEM",
          "id": "FLWUDF5M3CGYAXSIWV74OXUEMR3UWCBG",
          "latitude": "51.2652631",
          "longitude": "7.1702891",
          "sector": "sec_01"
        }
      ],
      "latitude": "51.26921",
      "longitude": "7.17677",
      "sector": "sec_01"
    },
    {
      "name": "Archivverbund Stadtarchiv/Staatsfilialarchiv Bautzen",
      "id": "VNY5SRGFIGFBGAJLOVUMCLIYXPLDF4O6",
      "latitude": "51.18328",
      "longitude": "14.42196",
      "sector": "sec_01"
    },
    {
      "name": "Arthur Boskamp-Stiftung M.1 Hohenlockstedt",
      "id": "KD23MXIL7TE43RK2GMKZKJYHYVMLAYOD",
      "latitude": "53.9654843",
      "longitude": "9.6158794",
      "sector": "sec_06"
    },
    {
      "name": "Atrium Museum an der Schleuse",
      "id": "ATKJJPTGCO7TZKX5NNAQ2HTYUBUBOPZD",
      "latitude": "0.0",
      "longitude": "0.0",
      "sector": "sec_06"
    },
    {
      "name": "Bach-Archiv Leipzig",
      "id": "LHSQGNCQCX55UKAKNSFCZ7WLRRNGL6RY",
      "latitude": "51.3396955",
      "longitude": "12.3730747",
      "sector": "sec_02"
    },
    {
      "name": "Bachhaus Eisenach",
      "id": "6BGT4WIVXSBW7QAHDVVIWEX44COLINBC",
      "latitude": "50.9716333",
      "longitude": "10.321736",
      "sector": "sec_06"
    },
    {
      "name": "Bäckerei und Dorfmuseum",
      "id": "CMW45C6SHYI76F2KHOLKALSXUMZX7FHL",
      "latitude": "54.6966593",
      "longitude": "9.1957514",
      "sector": "sec_06"
    },
    {
      "name": "Badische Landesbibliothek",
      "id": "INLVDM4I3AMZLTG6AE6C5GZRJKGOF75K",
      "latitude": "49.0083154",
      "longitude": "8.3989551",
      "sector": "sec_02"
    },
    {
      "name": "Badisches Landesmuseum Karlsruhe",
      "id": "JAXMXYQVGKZLOYIOOFDPQREXDCQRQMSZ",
      "children": [
        {
          "name": "Badisches Landesmuseum Karlsruhe – Außenstelle Südbaden",
          "id": "33PGUELPSXUNVSPTWAF57GCEBGSZSD33",
          "latitude": "47.88307",
          "longitude": "7.73211",
          "sector": "sec_06"
        },
        {
          "name": "Deutsches Musikautomaten-Museum",
          "id": "CAMLOQQKCZ4M3CXPFHRYUGBTWZSNBKGA",
          "latitude": "49.12834",
          "longitude": "8.59857",
          "sector": "sec_06"
        },
        {
          "name": "Keramikmuseum Staufen",
          "id": "BNLZG3B4G7VHW4BFP3G7C62JIIGHYTBF",
          "latitude": "47.8812785",
          "longitude": "7.729862",
          "sector": "sec_06"
        },
        {
          "name": "Klostermuseum Hirsau",
          "id": "HGOZKGREU3G4ULLRCXKQU2AT6ZECYXYS",
          "latitude": "48.7351496",
          "longitude": "8.7353557",
          "sector": "sec_06"
        },
        {
          "name": "Museum in der Majolika",
          "id": "2WEN5IUFZZU24IR6ASAYM4YYI6YKAJZM",
          "latitude": "49.01815",
          "longitude": "8.40214",
          "sector": "sec_06"
        },
        {
          "name": "Schloss Neuenbürg",
          "id": "BSHFUJACJQ22QY7ZCVNGPVSABPKKAA5W",
          "latitude": "48.848368",
          "longitude": "8.5879973",
          "sector": "sec_06"
        }
      ],
      "latitude": "49.0133",
      "longitude": "8.40213",
      "sector": "sec_06"
    },
    {
      "name": "Bauernmuseum Pfarrscheuer Bösingen",
      "id": "7MSR2WUYRYTZMQY6T7PZJIE2EI3CE773",
      "latitude": "48.2388395",
      "longitude": "8.5626901",
      "sector": "sec_06"
    },
    {
      "name": "Baumschulmuseum",
      "id": "4T76REXOEYB25JAABBYNEUPBIUTDGSQL",
      "latitude": "53.6407426",
      "longitude": "9.8209058",
      "sector": "sec_06"
    },
    {
      "name": "Bayerische Julius-Maximilians-Universität Würzburg",
      "id": "3IJSQ3OFJZCXLJLKDTIQIPYYS5TUMJLB",
      "children": [
        {
          "name": "Universitätsbibliothek Würzburg",
          "id": "NSXPVV4QVHVB24EIH76Y6NJZFKDLQKDT",
          "latitude": "49.77957",
          "longitude": "9.96597",
          "sector": "sec_02"
        }
      ],
      "latitude": "49.787891",
      "longitude": "9.935561",
      "sector": "sec_04"
    },
    {
      "name": "Bayerischer Landtag. Referat Bibliothek, Dokumentation, Archiv",
      "id": "EGUYE4OKPPXJSLMXPCJDV3TXLBI33K6V",
      "latitude": "48.136096",
      "longitude": "11.594363",
      "sector": "sec_01"
    },
    {
      "name": "Bayerisches Hauptstaatsarchiv",
      "id": "2232YVSIZTZYDAZIBI25LW3TZUY6DZVH",
      "children": [
        {
          "name": "Bayerisches Hauptstaatsarchiv. Abt. III: Geheimes Hausarchiv",
          "id": "AY6T7MNMXMAEVA2MJA6DC3DTZRKVQSTZ",
          "latitude": "48.1463951",
          "longitude": "11.5795737",
          "sector": "sec_01"
        },
        {
          "name": "Bayerisches Hauptstaatsarchiv. Abt. IV: Kriegsarchiv",
          "id": "HAXYXAVOH3EGUZB66AMWITUVGLLAEBL4",
          "latitude": "48.1571966",
          "longitude": "11.5427283",
          "sector": "sec_01"
        },
        {
          "name": "Bayerisches Hauptstaatsarchiv. Abt. V: Nachlässe und Sammlungen",
          "id": "LTHDFQRDVO4QCNCPJ6KUNSTJQFMR4ZVN",
          "latitude": "48.1463951",
          "longitude": "11.5795737",
          "sector": "sec_01"
        },
        {
          "name": "Bayerisches Hauptstaatsarchiv. Bibliothek",
          "id": "JV3ZEE3RBIM4NJGJ5JHVLRM2VJBOLEVK",
          "latitude": "48.1457916",
          "longitude": "11.5818691",
          "sector": "sec_02"
        }
      ],
      "latitude": "48.1457916",
      "longitude": "11.5818691",
      "sector": "sec_01"
    },
    {
      "name": "Bayerisches Staatsministerium des Innern - Bibliothek AIV -",
      "id": "HZPPTGHGO2BKXMMGHBLYVBZ74LEVMGLT",
      "latitude": "48.1435081",
      "longitude": "11.5773252",
      "sector": "sec_02"
    },
    {
      "name": "Bayerische Staatsbibliothek",
      "id": "PE423JPDSCU6C72BAC2PUBOHAINDRGFO",
      "latitude": "48.1474642",
      "longitude": "11.5801103",
      "sector": "sec_02"
    },
    {
      "name": "Bayerische Staatskanzlei. Bibliothek",
      "id": "HVTLL2AG7E7WE63ZFUDCY6OCUBHKFEXR",
      "latitude": "48.14194",
      "longitude": "11.58187",
      "sector": "sec_02"
    },
    {
      "name": "Bayerische Verwaltung der staatlichen Schlösser, Gärten und Seen",
      "id": "7PY6RZC72QECZWGC6ZZVGCMPMC55ZDTA",
      "latitude": "48.1597717",
      "longitude": "11.5018723",
      "sector": "sec_07"
    },
    {
      "name": "Beethoven-Haus Bonn",
      "id": "OYOVAXJJJJLHWDJBDGQR4QKCBMVH54LU",
      "latitude": "50.7370361",
      "longitude": "7.10119",
      "sector": "sec_01"
    },
    {
      "name": "Benediktinerabtei Neuburg",
      "id": "KK633SRYD3AGDUI7VAKR63AN7TPPZBV4",
      "latitude": "49.41939",
      "longitude": "8.73974",
      "sector": "sec_02"
    },
    {
      "name": "Bergbaumuseum Oelsnitz/Erzgebirge",
      "id": "QGP7IFBMLX4FNY4EDEBRZT3HV3ISE7RS",
      "latitude": "50.72338",
      "longitude": "12.72667",
      "sector": "sec_06"
    },
    {
      "name": "Berliner Festspiele",
      "id": "QSC2IPH3TPSWI5CVCVV2B2YLNUYPCJYI",
      "children": [
        {
          "name": "Martin-Gropius-Bau",
          "id": "ASEZP62S5KE5K2U346MJCC5EMD4PERZS",
          "latitude": "52.5066485",
          "longitude": "13.3819377",
          "sector": "sec_06"
        }
      ],
      "latitude": "52.4992661",
      "longitude": "13.3290019",
      "sector": "sec_07"
    },
    {
      "name": "Berlinische Galerie - Landesmuseum für Moderne Kunst, Fotografie und Architektur",
      "id": "R7K5YPOMO6QRPENPN6PZBNSG2WOUTHBB",
      "latitude": "52.503478",
      "longitude": "13.398227",
      "sector": "sec_06"
    },
    {
      "name": "BEST Sabel Bildungszentrum GmbH. Bibliothek",
      "id": "SWXJ7ART4L2C4WX7Y4VY5OCXDH5Y3XHG",
      "latitude": "52.51535",
      "longitude": "13.41368",
      "sector": "sec_02"
    },
    {
      "name": "Bezirksmuseum Friedrichshain-Kreuzberg, Archiv und Bibliothek",
      "id": "HVSPX7GJEILJH3XAWHKZQ66MSGOK6IJC",
      "latitude": "52.5008",
      "longitude": "13.41813",
      "sector": "sec_01"
    },
    {
      "name": "Bibliotheca Augustiniana - Forschungsbibliothek der Deutschen Augustiner",
      "id": "VVTIUEWIIOR3A2E6VJSAVS2AEGDT4AJ5",
      "latitude": "49.796368",
      "longitude": "9.931362",
      "sector": "sec_02"
    },
    {
      "name": "Bibliothek der Benediktiner-Abtei Schweiklberg",
      "id": "LCBRC2FWFI5NDZOUOWCQBH5JQJBWKV5V",
      "latitude": "48.6298917",
      "longitude": "13.1763296",
      "sector": "sec_02"
    },
    {
      "name": "Bibliothek der Deutschen Hochschule für Verwaltungswissenschaften Speyer",
      "id": "BY55H2AGRPFPPICTNWEK6W2DGBMRECOF",
      "children": [
        {
          "name": "Deutsche Hochschule für Verwaltungswissenschaften Speyer. Hochschulbibliothek",
          "id": "6T4SN6TEDOMMCCHNIRNGBL3IXR2YEWFS",
          "latitude": "49.3175361",
          "longitude": "8.4166928",
          "sector": "sec_02"
        }
      ],
      "latitude": "49.3175361",
      "longitude": "8.4166928",
      "sector": "sec_02"
    },
    {
      "name": "Bibliothek der Freien im Haus der Demokratie",
      "id": "GCXUFECGMSJXOQDAIUZMHY64A7KD47VX",
      "latitude": "52.528572",
      "longitude": "13.424928",
      "sector": "sec_02"
    },
    {
      "name": "Bibliothek der Redemptoristen",
      "id": "YDXV6COTEUU4DBODLHIVQNMRTLARVRUI",
      "latitude": "48.1571724",
      "longitude": "12.2762859",
      "sector": "sec_02"
    },
    {
      "name": "Bibliothek des Konservatismus",
      "id": "YD5JPH3NOKH3GPDKERYVSPZXQFIHXYYH",
      "latitude": "52.50737",
      "longitude": "13.32756",
      "sector": "sec_02"
    },
    {
      "name": "Bibliothek des Max-Planck-Institut zur Erforschung multireligiöser und multiethnischer Gesellschaften, Einrichtung der Max-Planck-Gesellschaft",
      "id": "SR6MICPF7GNLHZMZJC7YHH5WUY5YQBVF",
      "latitude": "51.5411359",
      "longitude": "9.9470657",
      "sector": "sec_02"
    },
    {
      "name": "Bibliothek des Priesterseminars Bamberg",
      "id": "P5XFOUOGG7F6A3F7BYEYNOQ4JYBKSBRL",
      "latitude": "49.88752",
      "longitude": "10.90156",
      "sector": "sec_02"
    },
    {
      "name": "Bibliothek für Bildungsgeschichtliche Forschung",
      "id": "DN6JTMZGUVJMILJJDF3F2USKVSKDCA3Y",
      "latitude": "52.5048936",
      "longitude": "13.448193",
      "sector": "sec_02"
    },
    {
      "name": "Bibliothek Glasmuseum Frauenau",
      "id": "3RKC4BZPXXV4ZX5F2LIPFKVFKYA2RRQQ",
      "latitude": "48.9900995",
      "longitude": "13.30053",
      "sector": "sec_02"
    },
    {
      "name": "Bibliothek Hör- und Sprachgeschädigtenwesen",
      "id": "P2TYM5L6FNB5K46DRYFELKDFRCFYBLZT",
      "latitude": "51.3280245",
      "longitude": "12.3983596",
      "sector": "sec_02"
    },
    {
      "name": "Bibliothek im Bildungszentrum Weissach im Tal",
      "id": "TEIG5VOSHMXLWIBSM2U75EVMNAWSELOC",
      "latitude": "48.9212",
      "longitude": "9.48708",
      "sector": "sec_02"
    },
    {
      "name": "Bibliothek Mylau",
      "id": "DFZX3ZWHKAW5K6XAINN7UCLZSLIDXPUJ",
      "latitude": "50.61831",
      "longitude": "12.26581",
      "sector": "sec_02"
    },
    {
      "name": "Bibliotheksservice-Zentrum Baden-Württemberg",
      "id": "JORGHTLPEPFRV4MXE2QSV5YBKAG2B2Z5",
      "latitude": "47.6758",
      "longitude": "9.144993",
      "sector": "sec_02"
    },
    {
      "name": "Bier- und Oktoberfestmuseum",
      "id": "5XD6YECTTUBZAOWTL34N6GPZILFLYB7H",
      "latitude": "48.13529",
      "longitude": "11.58022",
      "sector": "sec_06"
    },
    {
      "name": "Bildarchiv Foto Marburg",
      "id": "IW3AOJYDU4MT3MFK77H6L6RJ4VJG3LKF",
      "latitude": "50.810179",
      "longitude": "8.774707",
      "sector": "sec_01"
    },
    {
      "name": "Bilfinger Berger SE",
      "id": "7UTVDEBY4JEOSBPBBX7STKK7DXGDU4MV",
      "latitude": "49.47821",
      "longitude": "8.48792",
      "sector": "sec_01"
    },
    {
      "name": "Bismarck-Museum",
      "id": "PW3SEZVYITBDJVPPTOAE5AHLWHWZERJC",
      "latitude": "53.5291604",
      "longitude": "10.3372428",
      "sector": "sec_06"
    },
    {
      "name": "Bistum Münster. Bischöflich Münstersches Offizialat Vechta, Archiv",
      "id": "MDHIGNSP535HKPSAPGGOBZO3UQB7FCAS",
      "latitude": "52.73255",
      "longitude": "8.28959",
      "sector": "sec_01"
    },
    {
      "name": "Bistumsgeschichtliche Bibliothek der Diözese Augsburg",
      "id": "RJHA2AL7WBVFDA4HY4OK7EVZ3NGH63WN",
      "latitude": "48.3460027",
      "longitude": "10.907064",
      "sector": "sec_02"
    },
    {
      "name": "Brahmshaus",
      "id": "WJWDAQYEGRSZRXZD3BJ6T3FGPVOA2JW3",
      "latitude": "54.19343",
      "longitude": "9.096",
      "sector": "sec_06"
    },
    {
      "name": "Brandenburgisches Landesamt für Denkmalpflege und Archäologisches Landesmuseum",
      "id": "EC34V554WXH7IDJNRFIABVPXDPTNMZ3Z",
      "children": [
        {
          "name": "Archäologisches Landesmuseum Brandenburg",
          "id": "JRB5W4HQ7GKFV7PKY54GAJY2TFHRH4RJ",
          "latitude": "52.4065814",
          "longitude": "12.5619804",
          "sector": "sec_06"
        }
      ],
      "latitude": "52.17253",
      "longitude": "13.47345",
      "sector": "sec_03"
    },
    {
      "name": "Brehm-Gedenkstätte Renthendorf",
      "id": "NQYWKK4UBOHHNXL5SZJGVWQ5XJJFK6P5",
      "latitude": "50.8062137",
      "longitude": "11.8472195",
      "sector": "sec_06"
    },
    {
      "name": "Bremer Landesmuseum, Focke-Museum. Bibliothek, Bildarchiv",
      "id": "2VZFJ67IKLIRJIUZQ244SBAVIAIMPFJ7",
      "children": [
        {
          "name": "Mühle Oberneuland",
          "id": "5OVEFSZIKWO5J7LZTIGRZPM2H5XFDJKQ",
          "latitude": "53.0864292",
          "longitude": "8.9360791",
          "sector": "sec_01"
        }
      ],
      "latitude": "53.09163",
      "longitude": "8.86422",
      "sector": "sec_01"
    },
    {
      "name": "Bremische Evangelische Kirche. Landeskirchliches Archiv",
      "id": "FDKRUXMK52M2OQVKBURXICWRVM3IES6V",
      "latitude": "53.071775",
      "longitude": "8.8044562",
      "sector": "sec_01"
    },
    {
      "name": "Bücherei am Stadtpark",
      "id": "E72QPZZYV3L7TMQK5PLWW2QHYSHRAPPX",
      "latitude": "50.1064304",
      "longitude": "11.4495461",
      "sector": "sec_02"
    },
    {
      "name": "Buddenbrookhaus",
      "id": "4GPJ3ES7Y3ARUBTCWDULXGEQUAKFKAL6",
      "latitude": "53.86835",
      "longitude": "10.68568",
      "sector": "sec_06"
    },
    {
      "name": "Bundesamt für Bevölkerungsschutz und Katastrophenhilfe. Fachinformationsstelle",
      "id": "L2PX47MEFFRMROQTY6Q3IY3VM6H6JDDM",
      "latitude": "50.71467",
      "longitude": "7.06811",
      "sector": "sec_02"
    },
    {
      "name": "Bundesamt für Güterverkehr. Bibliothek",
      "id": "JAQ6YNVFWMNBS6SBUEESWVH4APMWJZTJ",
      "latitude": "50.9447171",
      "longitude": "6.9406705",
      "sector": "sec_02"
    },
    {
      "name": "Bundesamt für Seeschiffahrt und Hydrographie (BSH)",
      "id": "MRPKRRNOUBP2NQUJW7FM6RJHYMHTK5JP",
      "children": [
        {
          "name": "Bundesamt für Seeschifffahrt und Hydrographie / Bibliothek",
          "id": "5DM6K6AFHCEERFUQXUIXLQRFJ32LMTZ5",
          "latitude": "53.54665",
          "longitude": "9.96742",
          "sector": "sec_02"
        },
        {
          "name": "Bundesamt für Seeschifffahrt und Hydrographie / Bibliothek",
          "id": "YGRIJQLPFOXDBNPX4XNIF6MEIKLQJUUS",
          "latitude": "54.0971888",
          "longitude": "12.1062399",
          "sector": "sec_02"
        }
      ],
      "latitude": "53.54665",
      "longitude": "9.96742",
      "sector": "sec_04"
    },
    {
      "name": "Bundesamt für Verbraucherschutz und Lebensmittelsicherheit (BVL). Bibliothek",
      "id": "DMTNDFZ2OE5N2GXOIJ5DKJLBFP2QQ6PM",
      "children": [
        {
          "name": "Braunschweig",
          "id": "I2OVWQPGZYVJ76R5HXFAAJK4PDZEYYKO",
          "latitude": "52.2859903",
          "longitude": "10.4506141",
          "sector": "sec_07"
        }
      ],
      "latitude": "52.5141768",
      "longitude": "13.3846676",
      "sector": "sec_02"
    },
    {
      "name": "Bundesanstalt für Gewässerkunde",
      "id": "MMDYUXPA2D25AH62YEV7BKBAMSGK6VPT",
      "latitude": "50.3538577",
      "longitude": "7.5982477",
      "sector": "sec_04"
    },
    {
      "name": "Bundesanstalt für Wasserbau",
      "id": "I564CWGMIGNYQGWXH2WMJ2V4J4MINBRQ",
      "children": [
        {
          "name": "Bundesanstalt für Wasserbau (BAW). Verkehrswasserbauliche Zentralbibliothek (VZB)",
          "id": "5SDC3RNQINGOQ5Y2SD4LA6E47XO6XSLU",
          "latitude": "49.0195881",
          "longitude": "8.3713619",
          "sector": "sec_02"
        }
      ],
      "latitude": "49.0195881",
      "longitude": "8.3713619",
      "sector": "sec_04"
    },
    {
      "name": "Bundesarchiv",
      "id": "VSHJWG7QLS7Y3NS2HKE43E5Q5NJ7OCLS",
      "children": [
        {
          "name": "Bundesarchiv",
          "id": "7RHHOVZSIVJHCU673XBWKQY54DCDI7YS",
          "latitude": "52.4324233",
          "longitude": "13.2986408",
          "sector": "sec_01"
        },
        {
          "name": "Bundesarchiv",
          "id": "H4XVMNYFKNE26P4DWH4J7ZPTXYMQYZW7",
          "latitude": "52.48912",
          "longitude": "13.3153",
          "sector": "sec_01"
        },
        {
          "name": "Bundesarchiv",
          "id": "PTSXPW3MDEJ65TOSX7PTN26ISHIGNSWG",
          "latitude": "47.97881",
          "longitude": "7.82211",
          "sector": "sec_01"
        },
        {
          "name": "Bundesarchiv",
          "id": "UBTLP3ZYBQ4XXEA5MU62JZFSUGG2JBK3",
          "latitude": "50.34278",
          "longitude": "7.5729",
          "sector": "sec_01"
        },
        {
          "name": "Bundesarchiv, Außenstelle Bayreuth (Lastenausgleichsarchiv)",
          "id": "WE5ASCRT62NYOLQVSUDND3YLW6JPBI4M",
          "latitude": "49.9460486",
          "longitude": "11.563927",
          "sector": "sec_01"
        },
        {
          "name": "Bundesarchiv, Außenstelle Ludwigsburg",
          "id": "FKD6LPY5CHLLYNBDRPEUMHCE2WGTZ3Y6",
          "latitude": "48.89554",
          "longitude": "9.20317",
          "sector": "sec_01"
        },
        {
          "name": "Bundesarchiv, Erinnerungsstätte für die Freiheitsbewegungen in der deutschen Geschichte",
          "id": "3AGOZX6ZJJY4UPC6XZ62R52762ZEMMO7",
          "latitude": "48.85833",
          "longitude": "8.20519",
          "sector": "sec_01"
        },
        {
          "name": "Bundesarchiv. Bibliothek",
          "id": "AMZ3ET7LNKAWIEJDWXSH3VWW27EC4UY7",
          "latitude": "50.34278",
          "longitude": "7.5729",
          "sector": "sec_02"
        }
      ],
      "latitude": "50.34278",
      "longitude": "7.5729",
      "sector": "sec_01"
    },
    {
      "name": "Bundesinstitut für Arzneimittel und Medizinprodukte",
      "id": "FEQJVCT6VI4NQK6POZGLLPAAXPCX5PVN",
      "children": [
        {
          "name": "Bundesinstitut für Arzneimittel und Medizinprodukte (BfArM). Bibliothek",
          "id": "C73YZL5NUHK44M5NZKPM5SRZBTQMECXI",
          "latitude": "50.7052501",
          "longitude": "7.1365864",
          "sector": "sec_02"
        }
      ],
      "latitude": "50.7052501",
      "longitude": "7.1365864",
      "sector": "sec_04"
    },
    {
      "name": "Bundesinstitut für Kultur und Geschichte der Deutschen im östlichen Europa",
      "id": "ENJ37O7HMD73OQQNEKCQSZCQSEID63RA",
      "latitude": "53.16141",
      "longitude": "8.17779",
      "sector": "sec_04"
    },
    {
      "name": "Bundesstiftung zur Aufarbeitung der SED-Diktatur. Bibliothek",
      "id": "B3TZMHIVCYF7ZS4DU4K2PAXEPRK2FYRZ",
      "latitude": "52.51096",
      "longitude": "13.38794",
      "sector": "sec_02"
    },
    {
      "name": "Bundesversicherungsamt. Bibliothek",
      "id": "4FLRG4KRWNGX4MYPU75V2ZBU2BJ6NB77",
      "latitude": "50.71104",
      "longitude": "7.12476",
      "sector": "sec_02"
    },
    {
      "name": "Bunkermuseum Hamburg",
      "id": "IDCLDTPWRR562432BBN4TIUAKMAGTSEW",
      "children": [
        {
          "name": "Stadtteilarchiv Hamm",
          "id": "JQX2FBDXEXZYTGML6E3YFUH4UM2I7PYD",
          "latitude": "53.5582642",
          "longitude": "10.0467307",
          "sector": "sec_01"
        }
      ],
      "latitude": "53.5529944",
      "longitude": "10.0641836",
      "sector": "sec_06"
    },
    {
      "name": "Burger Museum",
      "id": "Y7RLRAA3S76M5KPA4SZYNEJYJQ7PLKGJ",
      "latitude": "53.9957871",
      "longitude": "9.2616813",
      "sector": "sec_06"
    },
    {
      "name": "Burg Pyrmont",
      "id": "KLXIUIE46SX7M6K4V3SDQW3ORM4Q3YBZ",
      "latitude": "50.23751",
      "longitude": "7.28836",
      "sector": "sec_06"
    },
    {
      "name": "Büromaschinen-Museum Barsbüttel",
      "id": "IHVPOOC6Z25VJRGYUH6FQ35AEPMJVYDB",
      "latitude": "53.5608108",
      "longitude": "10.1972446",
      "sector": "sec_06"
    },
    {
      "name": "Carl-Thiem-Klinikum Cottbus gemeinnützige GmbH. Medizinische Bibliothek",
      "id": "E6YZQB6TOLBW3UHJYCF2HQ75JUGUCOFX",
      "latitude": "51.7440719",
      "longitude": "14.3248136",
      "sector": "sec_02"
    },
    {
      "name": "Carl Zeiss Naturzentrum Norddorf",
      "id": "PFLQ6XWFT4QQQVFVLHVKIQHVX4L7E6Y6",
      "latitude": "54.686497",
      "longitude": "8.3241814",
      "sector": "sec_06"
    },
    {
      "name": "Christian-Weise-Bibliothek",
      "id": "NUYZ2B4ZLTZAWOWNW5T64K4KI3XFNSYV",
      "children": [
        {
          "name": "Christian Weise Bibliothek",
          "id": "6WBI4FGFTIZAR4EOJZE54RURRGL6IPNI",
          "latitude": "50.89597",
          "longitude": "14.81025",
          "sector": "sec_02"
        },
        {
          "name": "Christian Weise Bibliothek",
          "id": "DBONGTS5H37N5XRNXAV5QOYAOSGBMRQ3",
          "latitude": "51.1414",
          "longitude": "14.8001",
          "sector": "sec_02"
        }
      ],
      "latitude": "50.89597",
      "longitude": "14.81025",
      "sector": "sec_02"
    },
    {
      "name": "Cologne Business School",
      "id": "GD6RZGSYBPWUIKL4J5NZRDLNNRKNRUWF",
      "children": [
        {
          "name": "European Management School",
          "id": "JTUUW6BVZZ4LL34B3ALR7V56PFJNOUKC",
          "latitude": "50.0149",
          "longitude": "8.24143",
          "sector": "sec_07"
        }
      ],
      "latitude": "50.9242514",
      "longitude": "6.9488929",
      "sector": "sec_07"
    },
    {
      "name": "Commerzbank Aktiengesellschaft. Group Communications. Historisches Archiv",
      "id": "O3SFYICIR4GPYV2N4GS7MUDKAKO6TIYE",
      "latitude": "50.11109",
      "longitude": "8.67447",
      "sector": "sec_01"
    },
    {
      "name": "Computermuseum",
      "id": "YQIPAQRILTDPIULSUBAFKLF5BA2ZUQQE",
      "latitude": "54.3323031",
      "longitude": "10.1804144",
      "sector": "sec_06"
    },
    {
      "name": "Daimler",
      "id": "VMECTHZPWIRFUN62JCTDQAYAL2VU6KRK",
      "latitude": "48.78742",
      "longitude": "9.23694",
      "sector": "sec_02"
    },
    {
      "name": "Das Bunkermuseum Emden",
      "id": "XLKPEKK2XYQTLWJXS7H6OVL3PFN2VLFO",
      "latitude": "53.3594029",
      "longitude": "7.2060095",
      "sector": "sec_06"
    },
    {
      "name": "Dat ole Hus",
      "id": "K4GSADCOZ763N3SPPZSRFHPESIBEFB32",
      "latitude": "54.07078",
      "longitude": "9.79764",
      "sector": "sec_06"
    },
    {
      "name": "DDR Museum",
      "id": "TZEE6MQWZZL6BO3FPP6NWS3MKYVKPWAU",
      "latitude": "52.5191196",
      "longitude": "13.4028697",
      "sector": "sec_06"
    },
    {
      "name": "Der Bundesbeauftragte für die Unterlagen des Staatssicherheitsdienstes der ehemaligen Deutschen Demokratischen Republik",
      "id": "ZD5G7JN7LXSMJOGWLYQNH7ZWSSMWWOYH",
      "children": [
        {
          "name": "Der Bundesbeauftragte für die Unterlagen des Staatssicherheitsdienstes der ehemaligen Deutschen Demokratischen Republik, Außenstelle Chemnitz",
          "id": "35ZGKAUWVCHZ55NKI7RAHKMV7UC7LOSV",
          "latitude": "50.80731",
          "longitude": "12.84249",
          "sector": "sec_01"
        },
        {
          "name": "Der Bundesbeauftragte für die Unterlagen des Staatssicherheitsdienstes der ehemaligen Deutschen Demokratischen Republik, Außenstelle Dresden",
          "id": "PO4V7J33HPO7SXRH5GNJQJO3YWKPFSG6",
          "latitude": "51.0842696",
          "longitude": "13.7239933",
          "sector": "sec_01"
        },
        {
          "name": "Der Bundesbeauftragte für die Unterlagen des Staatssicherheitsdienstes der ehemaligen Deutschen Demokratischen Republik, Außenstelle Erfurt",
          "id": "EW2SZXDH45H5NMWI72Y5AYCRDKURCTQX",
          "latitude": "50.980164",
          "longitude": "11.018375",
          "sector": "sec_01"
        },
        {
          "name": "Der Bundesbeauftragte für die Unterlagen des Staatssicherheitsdienstes der ehemaligen Deutschen Demokratischen Republik, Außenstelle Frankfurt (Oder),",
          "id": "7K5NWGSOULZAT3QZUR5KCYH7BN7J6LLM",
          "latitude": "52.34935",
          "longitude": "14.49005",
          "sector": "sec_01"
        },
        {
          "name": "Der Bundesbeauftragte für die Unterlagen des Staatssicherheitsdienstes der ehemaligen Deutschen Demokratischen Republik, Außenstelle Gera",
          "id": "LLANEONLHNMJHSGVWGYIBFKEXBQLRXKA",
          "latitude": "50.886239",
          "longitude": "12.0723906",
          "sector": "sec_01"
        },
        {
          "name": "Der Bundesbeauftragte für die Unterlagen des Staatssicherheitsdienstes der ehemaligen Deutschen Demokratischen Republik, Außenstelle Halle (Saale),",
          "id": "BYFT4JKQ23IPJ6SQPWDOYA23GL6XHEPM",
          "latitude": "51.48956",
          "longitude": "11.94383",
          "sector": "sec_01"
        },
        {
          "name": "Der Bundesbeauftragte für die Unterlagen des Staatssicherheitsdienstes der ehemaligen Deutschen Demokratischen Republik, Außenstelle Leipzig",
          "id": "X377N7JGTWSEOHBZQYO3LFU4PIGIKQKA",
          "latitude": "51.3417263",
          "longitude": "12.3698875",
          "sector": "sec_01"
        },
        {
          "name": "Der Bundesbeauftragte für die Unterlagen des Staatssicherheitsdienstes der ehemaligen Deutschen Demokratischen Republik, Außenstelle Magdeburg",
          "id": "RYKQFCDX242OZO4TNARO67OLSW76LQXM",
          "latitude": "52.11019",
          "longitude": "11.58949",
          "sector": "sec_01"
        },
        {
          "name": "Der Bundesbeauftragte für die Unterlagen des Staatssicherheitsdienstes der ehemaligen Deutschen Demokratischen Republik, Außenstelle Neubrandenburg",
          "id": "FWWKZ4G2XUJWNHCCTAA4PTBFC5M26UWW",
          "latitude": "53.52754",
          "longitude": "13.26076",
          "sector": "sec_01"
        },
        {
          "name": "Der Bundesbeauftragte für die Unterlagen des Staatssicherheitsdienstes der ehemaligen Deutschen Demokratischen Republik, Außenstelle Rostock",
          "id": "6YQX77DOCCZEJNUTITPAVA6BMDDMR5WY",
          "latitude": "54.0306398",
          "longitude": "12.22092",
          "sector": "sec_01"
        },
        {
          "name": "Der Bundesbeauftragte für die Unterlagen des Staatssicherheitsdienstes der ehemaligen Deutschen Demokratischen Republik, Außenstelle Schwerin",
          "id": "W7KWSF7X45TJTVRK6ULULTDTR2XZV23V",
          "latitude": "53.634897",
          "longitude": "11.489849",
          "sector": "sec_01"
        },
        {
          "name": "Der Bundesbeauftragte für die Unterlagen des Staatssicherheitsdienstes der ehemaligen Deutschen Demokratischen Republik, Außenstelle Suhl",
          "id": "EUMULDQ7CGRGPKL6T7C2TALSCN5OLFSQ",
          "latitude": "50.5899833",
          "longitude": "10.7037507",
          "sector": "sec_01"
        }
      ],
      "latitude": "52.5267116",
      "longitude": "13.4145651",
      "sector": "sec_01"
    },
    {
      "name": "Der Tagesspiegel. Redaktionsarchiv & Dokumentation",
      "id": "YFJPZVRFKZX75QHPVCRJPOT6WRK7JXTH",
      "latitude": "52.50452",
      "longitude": "13.38009",
      "sector": "sec_01"
    },
    {
      "name": "Detlefsen-Museum im Brockdorff-Palais",
      "id": "KYJMVT5VVEGYMMIRHTCYC4NE4GR43B4X",
      "latitude": "53.7887864",
      "longitude": "9.4220888",
      "sector": "sec_06"
    },
    {
      "name": "Deutsch-Amerikanisches Institut (DAI) Heidelberg",
      "id": "7COSGXQKUMCXL37NYMHY47THAFSYBXVR",
      "latitude": "49.40777",
      "longitude": "8.69382",
      "sector": "sec_02"
    },
    {
      "name": "Deutsch-Deutsches Museum Mödlareuth",
      "id": "653B2OJMBAZMVYNVPVKWZNDVP6KIKGI3",
      "latitude": "50.4152629",
      "longitude": "11.8839125",
      "sector": "sec_06"
    },
    {
      "name": "Deutsche Bundesstiftung Umwelt",
      "id": "ASIJGRBAVFIBQHMTOZRB3NRRJFGL2L56",
      "latitude": "52.2863773",
      "longitude": "8.0324984",
      "sector": "sec_07"
    },
    {
      "name": "Deutsche Elektronen-Synchrotron. Bibliothek und Dokumentation",
      "id": "M2AWBJ4RQWNCC3KHTB73KA4K45SCHCO5",
      "children": [
        {
          "name": "Deutsches Elektronen-Synchrotron Bibliothek",
          "id": "ZWMBHMJM3S7PLO47GMAVUPLL4ONC3JQF",
          "latitude": "52.3461322",
          "longitude": "13.6334579",
          "sector": "sec_02"
        }
      ],
      "latitude": "53.5770154",
      "longitude": "9.8813009",
      "sector": "sec_02"
    },
    {
      "name": "Deutsche Kinemathek - Museum für Film und Fernsehen",
      "id": "ZNDMV3JGX3OTVAWIO7O5GJ5IBYCZLFN5",
      "latitude": "52.50974",
      "longitude": "13.37373",
      "sector": "sec_02"
    },
    {
      "name": "Deutsche Nationalbibliothek",
      "id": "2Q37XY5KXJNJE5MV6SWP3UKKZ6RSBLK5",
      "children": [
        {
          "name": "Deutsche Nationalbibliothek",
          "id": "ABPIUZEYCTVQPXZUNVONMPX2TWXGFTY3",
          "latitude": "51.322",
          "longitude": "12.39619",
          "sector": "sec_02"
        },
        {
          "name": "Deutsches Buch- und Schriftmuseum",
          "id": "RSOUM4GLJJJCFX6QUHCTPNQFEEPAX57W",
          "latitude": "51.322",
          "longitude": "12.39619",
          "sector": "sec_06"
        },
        {
          "name": "Deutsches Exilarchiv",
          "id": "UJVQP2TIF4YVCCJQXWZ2BNEECO7ZHYTW",
          "latitude": "50.13104",
          "longitude": "8.68375",
          "sector": "sec_01"
        },
        {
          "name": "Deutsches Musikarchiv",
          "id": "QDLINQG2WC72M3BFRAG7HH7FVTLNUIL6",
          "latitude": "51.322",
          "longitude": "12.39619",
          "sector": "sec_01"
        }
      ],
      "latitude": "50.13104",
      "longitude": "8.68375",
      "sector": "sec_02"
    },
    {
      "name": "Deutscher Eisenbahn-Verein e. V.",
      "id": "6J4SVWQQGCAFZBCQYK6RV4IT5F4YO3M7",
      "latitude": "52.8283302",
      "longitude": "8.9901107",
      "sector": "sec_06"
    },
    {
      "name": "Deutsche Rentenversicherung Oldenburg-Bremen. Bibliothek",
      "id": "5OUXVZN44XAWNBARUNUPT35HOAGWBABD",
      "children": [
        {
          "name": "Geschäftsstelle Bremen",
          "id": "FNMX7FGG7RW7YHUQQ4SKEJLCSPXDOXPH",
          "latitude": "53.08109",
          "longitude": "8.82994",
          "sector": "sec_07"
        }
      ],
      "latitude": "53.1381734",
      "longitude": "8.2188668",
      "sector": "sec_02"
    },
    {
      "name": "Deutscher Wetterdienst (DWD) - Deutsche Meteorologische Bibliothek",
      "id": "6A5R6YFA653G2BREC22DTHT4SQICGWA6",
      "latitude": "50.1023658",
      "longitude": "8.7479389",
      "sector": "sec_02"
    },
    {
      "name": "Deutsches Albert-Schweitzer-Zentrum",
      "id": "N7FBTG5N54EEMI3BX34RPZPWHDXKYQGM",
      "latitude": "50.1235266",
      "longitude": "8.6707181",
      "sector": "sec_06"
    },
    {
      "name": "Deutsches Albert-Schweitzer-Zentrum mit Archiv und Museum",
      "id": "AMVXX3RHD4WEVXXEFGWJRCXQJFOBPT24",
      "latitude": "50.1235266",
      "longitude": "8.6707181",
      "sector": "sec_01"
    },
    {
      "name": "Deutsches Archäologisches Institut (DAI)",
      "id": "VCU6ZPHVG72AA4J53YHWMUI4BKQ634WT",
      "children": [
        {
          "name": "Deutsches Archäologisches Institut (DAI). Bibliothek München",
          "id": "4VR3E4EZNT7IGW7Q6I3PIWYNXNX7ISNR",
          "latitude": "48.1507253",
          "longitude": "11.5785034",
          "sector": "sec_02"
        },
        {
          "name": "Deutsches Archäologisches Institut (DAI). Eurasien-Abteilung, Bibliothek",
          "id": "AYJ3F4CENLK7QADVKA4EHHTZO2OATZST",
          "latitude": "52.4642901",
          "longitude": "13.295",
          "sector": "sec_02"
        },
        {
          "name": "Deutsches Archäologisches Institut (DAI). Kommission für Archäologie Außereuropäischer Kulturen (KAAK)",
          "id": "DB3Q5FL6QKZVUFP2752ACSAUGSDR2HQZ",
          "latitude": "50.6865014",
          "longitude": "7.164203",
          "sector": "sec_02"
        },
        {
          "name": "Deutsches Archäologisches Institut (DAI). Orient-Abteilung, Bibliothek",
          "id": "KF2K5SHILNGSL4LMWV7XKOTDK26ZGA25",
          "latitude": "52.46072",
          "longitude": "13.30074",
          "sector": "sec_02"
        },
        {
          "name": "Deutsches Archäologisches Institut (DAI). Römisch-Germanische Kommission. Bibliothek Frankfurt am Main",
          "id": "JNAFWOSVQSLGQKAT42TP6DZYVIPNUGDB",
          "latitude": "50.12053",
          "longitude": "8.65728",
          "sector": "sec_02"
        },
        {
          "name": "Deutsches Archäologisches Institut (DAI). Zentrale Bibliothek",
          "id": "IFQSSGTK67WI6LV6M5QK27JQ37LXPCGM",
          "latitude": "52.46072",
          "longitude": "13.30074",
          "sector": "sec_02"
        }
      ],
      "latitude": "52.46072",
      "longitude": "13.30074",
      "sector": "sec_04"
    },
    {
      "name": "Deutsches Architekturmuseum. Bibliothek",
      "id": "M6YVNB3BZI4GZJPLYWKHYV7CAB4JFVP6",
      "latitude": "50.09852",
      "longitude": "8.6817",
      "sector": "sec_02"
    },
    {
      "name": "Deutsches Auswandererhaus",
      "id": "6J572MP5WIBRN7FL3IQ5XEHESFFNRIA3",
      "latitude": "53.54508",
      "longitude": "8.57415",
      "sector": "sec_06"
    },
    {
      "name": "Deutsches Biomasseforschungszentrum",
      "id": "UAZAO6POA2ZSSGG2JMBH2GK4XFC3YKHL",
      "latitude": "51.35651",
      "longitude": "12.4364588",
      "sector": "sec_04"
    },
    {
      "name": "Deutsches Filminstitut - DIF e.V.",
      "id": "4HYDA3GLAFDI5RL4YZDMXTA5UVGNXO7N",
      "latitude": "50.1052909",
      "longitude": "8.6774925",
      "sector": "sec_07"
    },
    {
      "name": "Deutsches Gartenbaumuseum Erfurt",
      "id": "53ZERF4QW3GHIUWM6D6SQGVHBNZGAFAR",
      "latitude": "50.9641165",
      "longitude": "10.9980869",
      "sector": "sec_06"
    },
    {
      "name": "Deutsches Geodätisches Forschungsinstitut",
      "id": "UUPHPTDKMGGC5C7REFYDDRPLPNQ6ZFCD",
      "latitude": "48.14158",
      "longitude": "11.58026",
      "sector": "sec_04"
    },
    {
      "name": "Deutsches Institut für Erwachsenenbildung e.V. Leibniz-Zentrum für lebenslanges Lernen. DIE-Bibliothek",
      "id": "6JHLNYAU7ILJSB6DF2JEFCDOWZ33CMFL",
      "latitude": "50.7058226",
      "longitude": "7.1432035",
      "sector": "sec_04"
    },
    {
      "name": "Deutsches Institut für Internationale Pädagogische Forschung",
      "id": "3XTHFWGCCBDIM52UG6QU5XLIQKIQGVCP",
      "children": [
        {
          "name": "Bibliothek für Bildungsgeschichtliche Forschung",
          "id": "S74DW3H5DAPBNLDZ4VSNHRV73S4W64WX",
          "latitude": "52.5048936",
          "longitude": "13.448193",
          "sector": "sec_02"
        }
      ],
      "latitude": "50.1225776",
      "longitude": "8.6383682",
      "sector": "sec_04"
    },
    {
      "name": "Deutsches Institut für tropische und subtropische Landwirtschaft. Bibliothek",
      "id": "KQEUAAIIP4XUILKHWZVE3X3XJODZOCXM",
      "latitude": "51.34391",
      "longitude": "9.85912",
      "sector": "sec_02"
    },
    {
      "name": "Deutsches Institut für Urbanistik",
      "id": "AFBV7SOQ7NWBVKF2IR62AGHNXLS6AKRR",
      "children": [
        {
          "name": "Deutsches Institut für Urbanistik gGmbH",
          "id": "TAB6RSV66J2YKER76FLFBLJIOGNGNI5X",
          "latitude": "50.9437725",
          "longitude": "6.9521636",
          "sector": "sec_04"
        }
      ],
      "latitude": "52.5074587",
      "longitude": "13.3884799",
      "sector": "sec_04"
    },
    {
      "name": "Deutsches Kulturforum östliches Europa",
      "id": "RNA4XZA4AP5UVMCV75ULJ36SNQK2PLE4",
      "latitude": "52.40447",
      "longitude": "13.0714",
      "sector": "sec_07"
    },
    {
      "name": "Deutsches Literaturarchiv Marbach",
      "id": "DHZY6PQBJ3IWAQDCCCW66HUGEL2LZVA6",
      "latitude": "48.93601",
      "longitude": "9.25604",
      "sector": "sec_01"
    },
    {
      "name": "Deutsches Meeresmuseum Stralsund",
      "id": "4DDEFQLBJSYX7TZCIT6O6GBZ36C3S5DD",
      "latitude": "54.3121688",
      "longitude": "13.0873169",
      "sector": "sec_06"
    },
    {
      "name": "Deutsches Museum von Meisterwerken der Naturwissenschaft und Technik",
      "id": "L7EDUHSZRZC7D5RVA3LSCF7KMGEWHCWB",
      "children": [
        {
          "name": "Deutsches Museum. Archiv",
          "id": "TWWVA6ZCTSY75A2SIXMKVHWZO7V34VIO",
          "latitude": "48.1310638",
          "longitude": "11.5844567",
          "sector": "sec_01"
        },
        {
          "name": "Deutsches Museum. Bibliothek",
          "id": "BTM6VBQO4GWGT34YDETGAYI3E35ZGZCX",
          "latitude": "48.1310638",
          "longitude": "11.5844567",
          "sector": "sec_02"
        }
      ],
      "latitude": "48.1310638",
      "longitude": "11.5844567",
      "sector": "sec_06"
    },
    {
      "name": "Deutsches Patent- und Markenamt",
      "id": "BEKF22NHKF7SSWJW27UXTC4A5XGYV5CQ",
      "children": [
        {
          "name": "Dienststelle Jena",
          "id": "XMPRVOXW6QF6XEQHJ64IF4TSP623LBVR",
          "latitude": "50.9638975",
          "longitude": "11.6024872",
          "sector": "sec_07"
        },
        {
          "name": "Technisches Informationszentrum Berlin",
          "id": "6M2YARUP2PJQFDGLALS7WJVYIT33Z6LF",
          "latitude": "52.498425",
          "longitude": "13.3978809",
          "sector": "sec_07"
        }
      ],
      "latitude": "48.1326706",
      "longitude": "11.5837666",
      "sector": "sec_04"
    },
    {
      "name": "Deutsches Referenzzentrum für Ethik in den Biowissenschaften. Bibliothek/Dokumentation",
      "id": "4N7D77HEZWGSALCXGEON4JAHK6PJVSQQ",
      "latitude": "50.72494",
      "longitude": "7.10311",
      "sector": "sec_02"
    },
    {
      "name": "Deutsches Röntgenmuseum. Bibliothek",
      "id": "OJWI23RA7DOHDX5OE5GUT6T74DZ4VUOX",
      "latitude": "51.1937753",
      "longitude": "7.2594424",
      "sector": "sec_02"
    },
    {
      "name": "Deutsches Schiffahrtsmuseum. Bibliothek",
      "id": "RLDRZPJWHID2FJSX3FQZK73B3OPNVQI7",
      "latitude": "53.53997",
      "longitude": "8.57741",
      "sector": "sec_02"
    },
    {
      "name": "Deutsches Spielzeugmuseum. Bibliothek",
      "id": "Z2DXMJPZ7DQFHIYAZB4XAZVAWH6KYBIN",
      "latitude": "50.3616744",
      "longitude": "11.1778223",
      "sector": "sec_02"
    },
    {
      "name": "Deutsches Spielzeugmuseum Sonneberg",
      "id": "BXTJU3AQHVO2UDPH552GQQHXQADMHEFI",
      "latitude": "50.3616744",
      "longitude": "11.1778223",
      "sector": "sec_06"
    },
    {
      "name": "Deutsches Straßenmuseum e.V.",
      "id": "HONKPJ26ORQMRKAMJXZPYO23RZC2LFRL",
      "latitude": "49.2205974",
      "longitude": "8.3757896",
      "sector": "sec_06"
    },
    {
      "name": "Deutsches Stuhlmuseum Eimbeckhausen e.V.",
      "id": "UII5M36UWNZ3ZUXMEK4CI2GTBBQ5OAY3",
      "latitude": "52.23594",
      "longitude": "9.4098",
      "sector": "sec_06"
    },
    {
      "name": "Deutsches Tagebucharchiv e.V.",
      "id": "VCNH6RDT7U4IRBI5GXYVMRECYUVZ526H",
      "latitude": "48.1202085",
      "longitude": "7.8498637",
      "sector": "sec_01"
    },
    {
      "name": "Deutsches Tanzarchiv Köln",
      "id": "KHHVWQWU4N2IEOYZ4JMML36KDCZRVUSN",
      "latitude": "50.948383",
      "longitude": "6.943595",
      "sector": "sec_01"
    },
    {
      "name": "Deutsches Textilmuseum Krefeld",
      "id": "KUSOLZJTJSOZGBXJUUBAYIV3YDGYB7OK",
      "latitude": "51.3338",
      "longitude": "6.637",
      "sector": "sec_06"
    },
    {
      "name": "Deutsches Zentralinstitut für soziale Fragen",
      "id": "4Q7JQODFZGYQNB7QI2PHZXL52R3UUCTX",
      "latitude": "52.46537",
      "longitude": "13.29221",
      "sector": "sec_02"
    },
    {
      "name": "Deutsche Zentralbücherei für Blinde zu Leipzig. Bibliothek",
      "id": "GHJOB3ICMAK6SXQUUOPCI2OTUBJUOVRU",
      "latitude": "51.3448748",
      "longitude": "12.3664458",
      "sector": "sec_02"
    },
    {
      "name": "Die Plattenburg mit dem Burgkeller",
      "id": "4GYKFTFZHKNV4KNBS7PPP6EBJJ45ALRZ",
      "latitude": "52.9582295",
      "longitude": "12.0302543",
      "sector": "sec_06"
    },
    {
      "name": "digiCULT-Verbund eG",
      "id": "XDNCPF2LBDI5VCSGTHZKY7RINDXKCMJX",
      "latitude": "54.339827",
      "longitude": "10.140663",
      "sector": "sec_06"
    },
    {
      "name": "Digitales Kunst- und Kulturarchiv Düsseldorf",
      "id": "DWIVLJW5JBO7X4XRO2Y7PCGZSHLTUS6F",
      "latitude": "51.2145599",
      "longitude": "6.7542654",
      "sector": "sec_07"
    },
    {
      "name": "Digizeitschriften e.V",
      "id": "4BQJRZ3KZCAN5BLLGNBAPJHAP7FVHL3R",
      "latitude": "51.533949",
      "longitude": "9.931684",
      "sector": "sec_02"
    },
    {
      "name": "Diözesanbibliothek Aachen im Katechetischen Institut des Bistums Aachen",
      "id": "SEJFS4PLOGILIVNX2S4U4SBCA4DSNMY4",
      "children": [
        {
          "name": "Bischöfliches Diözesanarchiv Aachen",
          "id": "TPASZPPRVL3DTWE4DHU65XJMCDDVAFAE",
          "latitude": "50.7749369",
          "longitude": "6.082468",
          "sector": "sec_01"
        }
      ],
      "latitude": "50.7555153",
      "longitude": "6.0854065",
      "sector": "sec_02"
    },
    {
      "name": "Diözesanbibliothek Limburg.",
      "id": "R3S5RX3B6OYSMI52GEJSMNTL4JPEJDNW",
      "latitude": "50.3938288",
      "longitude": "8.0678953",
      "sector": "sec_02"
    },
    {
      "name": "Diözese Rottenburg-Stuttgart / Diözesanbibliothek",
      "id": "N464K2SOUR6IEXXB7KL2NBCKX54OEOZK",
      "children": [
        {
          "name": "Diözesanbibliothek",
          "id": "4W6HKTJUM6TUW77H3I5I3FC4PICIBC2G",
          "latitude": "48.4757711",
          "longitude": "8.934214",
          "sector": "sec_02"
        }
      ],
      "latitude": "48.470113",
      "longitude": "8.9469143",
      "sector": "sec_02"
    },
    {
      "name": "Dithmarscher Landesmuseum",
      "id": "OZD24GBCZGOJ53V7ZII54UI5SXE6ESU3",
      "latitude": "54.0912936",
      "longitude": "9.073274",
      "sector": "sec_06"
    },
    {
      "name": "documenta Archiv für die Kunst des 20. und 21. Jahrhunderts",
      "id": "RHHC2NWM5Z5QCNPYEHYRS2WTGQ3PAFEO",
      "children": [
        {
          "name": "Harry Kramer Archiv - Dr. Aschrott-Wohlfahrtshaus",
          "id": "HT6ZXQUBYUIPTZVK4WP5PNRAUDAEG346",
          "latitude": "51.3157097",
          "longitude": "9.4999864",
          "sector": "sec_01"
        }
      ],
      "latitude": "51.31422",
      "longitude": "9.4973",
      "sector": "sec_01"
    },
    {
      "name": "Dokumentationszentrum NS-Zwangsarbeit Berlin",
      "id": "TJMRWKCSSVX4Z6DWXHYVBUMUMHLULM4U",
      "latitude": "52.453648",
      "longitude": "13.5186335",
      "sector": "sec_06"
    },
    {
      "name": "Dom-Museum Hildesheim",
      "id": "TOCT3P6FJUDTNPRBCZ4DDCL34UKBSX5W",
      "latitude": "52.1490921",
      "longitude": "9.9459599",
      "sector": "sec_06"
    },
    {
      "name": "Domstiftsarchiv",
      "id": "D2DIVDHJWVQWWM2P5F2DIWQ3OAP3THB3",
      "children": [
        {
          "name": "Domstiftsarchiv. Bibliothek",
          "id": "VP3CVYG5YKZKFXIVZLTZRBP2Y4IQXIBK",
          "latitude": "52.41495",
          "longitude": "12.56589",
          "sector": "sec_02"
        }
      ],
      "latitude": "52.41486",
      "longitude": "12.56691",
      "sector": "sec_01"
    },
    {
      "name": "Domstiftsarchiv Brandenburg",
      "id": "KPNDYMA4YXT7EDIXWN6CDCLBIJ2KSCYU",
      "latitude": "52.41486",
      "longitude": "12.56691",
      "sector": "sec_01"
    },
    {
      "name": "Dorfmuseum Bistensee",
      "id": "Q5FQ5DCVVBS5FBSQHCE5A76XTTAGTONN",
      "latitude": "0.0",
      "longitude": "0.0",
      "sector": "sec_06"
    },
    {
      "name": "Dorfmuseum Brodersby",
      "id": "O6MQ4BTDDVKTMQZ22ZJLKECFF5TTC4BD",
      "latitude": "54.53751",
      "longitude": "9.71113",
      "sector": "sec_06"
    },
    {
      "name": "Dorfmuseum Dammholm",
      "id": "UQHX2HSJME64FZEOAXXO24TIVTIN3JOE",
      "latitude": "54.6477205",
      "longitude": "9.5697564",
      "sector": "sec_06"
    },
    {
      "name": "Dorfmuseum Grube",
      "id": "EMAXGNL32UJG5J2L54HHXPHJACMBEPQ6",
      "latitude": "54.23438",
      "longitude": "11.03589",
      "sector": "sec_06"
    },
    {
      "name": "Dorfmuseum Haselau",
      "id": "QSXSJ7N54AJ7UPZR23O53MS5FBLYZN4Z",
      "latitude": "53.6590659",
      "longitude": "9.6199613",
      "sector": "sec_06"
    },
    {
      "name": "Dorfmuseum Hohn",
      "id": "5F2FFRYYDHLBYHPAQTIXKWZUQEU76URY",
      "latitude": "54.30179",
      "longitude": "9.5122",
      "sector": "sec_06"
    },
    {
      "name": "Dorfmuseum Oster-Ohrstedt",
      "id": "6ZX3GSBQDBYTS3TDRWDMAQYWMRJRZDJM",
      "latitude": "54.515",
      "longitude": "9.2226",
      "sector": "sec_06"
    },
    {
      "name": "Dorfmuseum Ottenbüttel",
      "id": "PXM7MMP3TLPM7F7SSJRNWO76HAJ2UVXZ",
      "latitude": "53.97263",
      "longitude": "9.50683",
      "sector": "sec_06"
    },
    {
      "name": "Dorfmuseum Schacht-Audorf",
      "id": "GYYIUBVLEKEP5GMXZINQUWAU65SF7OVG",
      "latitude": "54.31356",
      "longitude": "9.71754",
      "sector": "sec_06"
    },
    {
      "name": "Dorfmuseum Schönwalde",
      "id": "E3PHA5EFXRE4E77677UTYRTBEZSK3LUY",
      "latitude": "54.18914",
      "longitude": "10.75232",
      "sector": "sec_06"
    },
    {
      "name": "Dorfmuseum Ulsnis",
      "id": "QWJRUG725OWZN4SBBXC2GBFFW64QXVNJ",
      "latitude": "54.5694188",
      "longitude": "9.73026",
      "sector": "sec_06"
    },
    {
      "name": "Dorte-Hilleke-Bücherei Menden",
      "id": "2XXX7TXNTQ4V6ZSCKOP5ZCFGLP5AJZIA",
      "latitude": "51.43805",
      "longitude": "7.79512",
      "sector": "sec_02"
    },
    {
      "name": "Dortmunder Initiative zur rechnerintegrierten Fertigung",
      "id": "PMCJYE5GH7BXUPYRTI3MO4GKFMLMOOOW",
      "latitude": "51.49051",
      "longitude": "7.40653",
      "sector": "sec_04"
    },
    {
      "name": "Dr. Carl-Haeberlin Friesen-Museum",
      "id": "NQBFMFQBXBTOH4M5QVBBJ5KQOXHW4HZQ",
      "latitude": "54.6870703",
      "longitude": "8.5619904",
      "sector": "sec_06"
    },
    {
      "name": "Dr.-Erich-Bloch-und-Lebenheim-Bibliothek (Judaica) der Israelitischen Kultusgemeinde Konstanz",
      "id": "LPQB4OMLULGKRCIORMNIHYENFJL5AKHZ",
      "latitude": "47.65845",
      "longitude": "9.17581",
      "sector": "sec_02"
    },
    {
      "name": "Dresdner Druck- u. Verlagshaus GmbH & Co.KG. Unternehmensbereich Zeitungen, Archiv Sächsische Zeitung und Morgenpost Sachsen",
      "id": "2U667VYSXTTW3PCIXVTD7M7TBW2JRS4A",
      "latitude": "51.05725",
      "longitude": "13.72887",
      "sector": "sec_01"
    },
    {
      "name": "Dr. Hans Meyer-Heimatmuseum",
      "id": "7PCY6BP3MBFHJWV64ZFFSRXQHXBKU5YX",
      "latitude": "54.393275",
      "longitude": "9.187241",
      "sector": "sec_06"
    },
    {
      "name": "Dr.-Ing. h.c. F. Porsche AG. Historisches Archiv",
      "id": "ZLAWODX4ZBYML7SPWT56UYNZTQ5MICGH",
      "children": [
        {
          "name": "Porsche Museum",
          "id": "WWCDPJQV76MCJNC57MTRVJLJM2VI5RBN",
          "latitude": "48.8349786",
          "longitude": "9.1523261",
          "sector": "sec_06"
        }
      ],
      "latitude": "48.8349786",
      "longitude": "9.1523261",
      "sector": "sec_01"
    },
    {
      "name": "Eberhard-Karls-Universität Tübingen, Universitätsarchiv",
      "id": "Z2ZLZVMSRLMMFWXGHZ4224QYSS63BXO4",
      "latitude": "48.5251",
      "longitude": "9.06176",
      "sector": "sec_01"
    },
    {
      "name": "Eisenbahnmuseum",
      "id": "463KBRWB2SPTU3A4PYUKWQXZH3WDJWDR",
      "latitude": "49.67009",
      "longitude": "12.15406",
      "sector": "sec_06"
    },
    {
      "name": "Eisenhüttenmuseum Trippstadt",
      "id": "ZRZAPPVTLDJY5QV47WTEOPVI3VMVHLYQ",
      "children": [
        {
          "name": "Eisenhüttenmuseum",
          "id": "T4WPLDJDITN3PL7VUTDQYR7AB36TIWGM",
          "latitude": "49.3547214",
          "longitude": "7.7695356",
          "sector": "sec_06"
        }
      ],
      "latitude": "49.3547214",
      "longitude": "7.7695356",
      "sector": "sec_06"
    },
    {
      "name": "Eisenkunstgussmuseum",
      "id": "P2YQJHDYEFY3T2NVU5ZV5JFA6PGYKHIZ",
      "latitude": "54.3141378",
      "longitude": "9.6666093",
      "sector": "sec_06"
    },
    {
      "name": "Eiszeitmuseum",
      "id": "HJMU5YCTCAIGHB5LFGG4QW43CV2S75IL",
      "latitude": "54.3029065",
      "longitude": "10.5626744",
      "sector": "sec_06"
    },
    {
      "name": "Elbschiffahrtsmuseum",
      "id": "6E2BF6BC3BIDAJPECXQ35ZUQ33VMTHIV",
      "latitude": "53.37044",
      "longitude": "10.55293",
      "sector": "sec_06"
    },
    {
      "name": "Elektromuseum E.ON-Hanse AG",
      "id": "WNH2CIDTBQJ3A775DLAH4SGEF5G3M3Q6",
      "latitude": "54.3052308",
      "longitude": "9.6720228",
      "sector": "sec_06"
    },
    {
      "name": "Erich Maria Remarque-Friedenszentrum Osnabrück",
      "id": "OJS7XGB2WL52VC554PMV43YSJGQ2CENO",
      "latitude": "52.2773477",
      "longitude": "8.0415395",
      "sector": "sec_06"
    },
    {
      "name": "Ernst-Barlach-Museum",
      "id": "VWVARO4KHPUOTBIRWJJXQTOAI37BQQWA",
      "latitude": "53.698635",
      "longitude": "10.7731573",
      "sector": "sec_06"
    },
    {
      "name": "Ernst-Barlach-Museum",
      "id": "MTSWOCZEMKGRKCSKXFHRFZCI5D62PFSI",
      "latitude": "53.5836247",
      "longitude": "9.6990178",
      "sector": "sec_06"
    },
    {
      "name": "Ernst-Ludwig-Kirchner-Dokumentation",
      "id": "CGTOW3JCT4TEG3FIU6KI3TMAGEC4DJJR",
      "latitude": "54.441172",
      "longitude": "11.1919069",
      "sector": "sec_06"
    },
    {
      "name": "Erstes Circus-Museum in Deutschland",
      "id": "MALFN6BCPK4WCSSN3P6DUCNZKZZEVVBE",
      "latitude": "54.23669",
      "longitude": "10.28253",
      "sector": "sec_06"
    },
    {
      "name": "Erzbischöfliche Akademische Bibliothek",
      "id": "GLVFKDC3ZUWXBXMK6OAIECSPB7LR2XWW",
      "latitude": "51.71412",
      "longitude": "8.75723",
      "sector": "sec_02"
    },
    {
      "name": "Erzbistum Paderborn. Erzbistumsarchiv Paderborn",
      "id": "BTF7ZCXUJJBBPUJFKAHHNADKMMWIFN3U",
      "latitude": "51.7191439",
      "longitude": "8.7571918",
      "sector": "sec_01"
    },
    {
      "name": "Erzgebirgsmuseum mit Bergwerk Im Gößner",
      "id": "YWAMPA5PB6QDHOGSTT5FZMQALUDVWAM4",
      "latitude": "50.5784343",
      "longitude": "13.0043491",
      "sector": "sec_06"
    },
    {
      "name": "Europa-Universität Viadrina Frankfurt (Oder)",
      "id": "64EQAXITVNBSMTRMAHRSN4TEYSDJITGB",
      "latitude": "52.3422308",
      "longitude": "14.5535328",
      "sector": "sec_04"
    },
    {
      "name": "Evangelische Hochschule Freiburg. Bibliothek",
      "id": "NVZC5XH5TVX3JXDPO7ZCWPHOHJJJJJ5D",
      "latitude": "47.9974231",
      "longitude": "7.8035778",
      "sector": "sec_02"
    },
    {
      "name": "Evangelische Kirche in Deutschland. Bibliothek",
      "id": "PJWGJIET4J75I24MKDNIQ5RII54AWGSZ",
      "children": [
        {
          "name": "Bibliothek des Sozialwissenschaftlichen Insituts der EKD",
          "id": "SGCRZBXQKHBUMEQACZICILMXBHJKSMW4",
          "latitude": "52.37285",
          "longitude": "9.80628",
          "sector": "sec_02"
        }
      ],
      "latitude": "52.3925334",
      "longitude": "9.6927217",
      "sector": "sec_02"
    },
    {
      "name": "Evangelische Kirche von Kurhessen-Waldeck. Landeskirchliches Archiv",
      "id": "7WJ6FER3TSPBOT7B232HVKWRKIWULJP7",
      "latitude": "51.318907",
      "longitude": "9.472588",
      "sector": "sec_01"
    },
    {
      "name": "Evangelisches Landeskirchliches Archiv in Berlin",
      "id": "RCAI77YGV4BYFQOUSLRFYRUT72KGCSNL",
      "latitude": "52.5051",
      "longitude": "13.42379",
      "sector": "sec_01"
    },
    {
      "name": "Evangelisches Stift. Bibliothek",
      "id": "CVDQHLHKNI64CX6KLIFLFCSQR5FFC5V6",
      "latitude": "48.5195906",
      "longitude": "9.0535839",
      "sector": "sec_02"
    },
    {
      "name": "Evangelisch-Lutherische Landeskirche Mecklenburgs. Landeskirchliches Archiv",
      "id": "VEU7QGGBBDTBVLHPTFH6476C7LRZ3G47",
      "latitude": "53.62977",
      "longitude": "11.41403",
      "sector": "sec_01"
    },
    {
      "name": "Evangelisch-lutherischer Oberkirchenrat. Bibliothek",
      "id": "DEGHF52JLZUW6V7SZYXLGEMX6WDCNHIN",
      "latitude": "53.14453",
      "longitude": "8.1981",
      "sector": "sec_02"
    },
    {
      "name": "Fachhochschule Bingen",
      "id": "YIATQTY7GIRQLJ6AOIIIMEELC2CSQZYM",
      "children": [
        {
          "name": "Fachhochschule Bingen. Bibliothek",
          "id": "XJAJL3IXTLQT4T6AUWYT3ORIHLB6J22I",
          "latitude": "49.95273",
          "longitude": "7.92556",
          "sector": "sec_02"
        }
      ],
      "latitude": "49.95273",
      "longitude": "7.92556",
      "sector": "sec_04"
    },
    {
      "name": "Fachhochschule Kiel",
      "id": "RF7V74PF4QFVF253DWSJZZPIQ7L3KBZO",
      "children": [
        {
          "name": "Fachbereich Agrarwirtschaft",
          "id": "7KKBLUBBB3I5WFK26SYLFKD476CQW2QP",
          "latitude": "54.28752",
          "longitude": "9.67547",
          "sector": "sec_04"
        },
        {
          "name": "Fachhochschule Kiel. Zentralbibliothek",
          "id": "Y3RU2EQQ3TPXW3E2WPRJUATVJY7ZCZAM",
          "latitude": "54.3298853",
          "longitude": "10.179795",
          "sector": "sec_02"
        }
      ],
      "latitude": "54.3333722",
      "longitude": "10.1804179",
      "sector": "sec_04"
    },
    {
      "name": "Fachhochschule Ottersberg",
      "id": "UGI4F62B4M5GYZDHHDGKHHGE2U2BWZ3Q",
      "latitude": "53.10348",
      "longitude": "9.16272",
      "sector": "sec_04"
    },
    {
      "name": "Fachhochschule Trier",
      "id": "DURV7KMPMZFI4OAXLXFLYM2ZWWNPAL33",
      "latitude": "49.76764",
      "longitude": "6.63043",
      "sector": "sec_04"
    },
    {
      "name": "Fachhochschule Worms",
      "id": "DDROOM6BMSVAUZBLJRQZESGB22AK7MCM",
      "children": [
        {
          "name": "Fachhochschule Worms. Hochschulbibliothek",
          "id": "XLYGEGYGLC6WSHFEWQJQKCBTHTUYMSOA",
          "latitude": "49.63312",
          "longitude": "8.3434",
          "sector": "sec_02"
        }
      ],
      "latitude": "49.63312",
      "longitude": "8.3434",
      "sector": "sec_04"
    },
    {
      "name": "Fachklinikum Bernburg SALUS gGmbH. Medizinische Fachbibliothek",
      "id": "KZF7H2SH4JWC2W4XT2IV7J4WZ5NM5CYS",
      "latitude": "51.78632",
      "longitude": "11.72937",
      "sector": "sec_02"
    },
    {
      "name": "FEUER.WEHRK - Das Feuerwehrmuseum",
      "id": "NSR354VESB36EQP6JECLD4CMR4UCE4FY",
      "children": [
        {
          "name": "FEUER.WEHRK",
          "id": "XZPQX6IPF6VQDJB62UTVSRN2LMGTHOBS",
          "latitude": "51.4142804",
          "longitude": "7.1927985",
          "sector": "sec_06"
        }
      ],
      "latitude": "51.40689",
      "longitude": "7.19184",
      "sector": "sec_06"
    },
    {
      "name": "Feuerwehrmuseum",
      "id": "QQAG6ZKOX3X5F3XEAZNI3T2RAMNJYBTW",
      "latitude": "54.56109",
      "longitude": "9.58925",
      "sector": "sec_06"
    },
    {
      "name": "Feuerwehrmuseum Birkenmoor",
      "id": "S3JSLQEQHOWW3UZPSPQCV6E2NMTFUALC",
      "latitude": "54.43148",
      "longitude": "10.06035",
      "sector": "sec_06"
    },
    {
      "name": "Feuerwehrmuseum Kaufbeuren-Ostallgäu e.V.",
      "id": "6X7XNLH2PKEFCI2JSQHNE2NB4UHGGPGC",
      "children": [
        {
          "name": "Spittelmühle",
          "id": "4L4ZHDZA5AC42LJBQD4S3PNF5BXBXVNS",
          "latitude": "47.88083",
          "longitude": "10.62459",
          "sector": "sec_06"
        }
      ],
      "latitude": "47.88211",
      "longitude": "10.62521",
      "sector": "sec_06"
    },
    {
      "name": "Feuerwehrmuseum Schleswig-Holstein",
      "id": "3Z6L4GQF7DJO4RF6Y547FZHFIFDFC4WB",
      "latitude": "53.70228",
      "longitude": "9.97949",
      "sector": "sec_06"
    },
    {
      "name": "F. G. Conzen im Alten Haus",
      "id": "MQKIX222KB57BSDUFRZBKFM6YBOIW2E2",
      "latitude": "51.2224816",
      "longitude": "6.7727247",
      "sector": "sec_06"
    },
    {
      "name": "Filmmuseum der Landeshaupstadt Düsseldorf",
      "id": "WTLA7RRWITLRF2MPDK4M5RF2IJ4ZUPH6",
      "children": [
        {
          "name": "Bibliothek und Sammlungen",
          "id": "4AGIRYXAB2QNCX3WPA3L5QBY3UZFYTSE",
          "latitude": "51.2238914",
          "longitude": "6.7711064",
          "sector": "sec_02"
        },
        {
          "name": "Sammlungen und Filmarchiv",
          "id": "MFU6TAIVZGNKJSCYQDAGANEYCRHYNULK",
          "latitude": "51.2098509",
          "longitude": "6.7659258",
          "sector": "sec_01"
        }
      ],
      "latitude": "51.2238914",
      "longitude": "6.7711064",
      "sector": "sec_06"
    },
    {
      "name": "FIZ Karlsruhe - Leibniz-Institut für Informationsinfrastruktur",
      "id": "IPSQKSWH46RX2B475NRZARHV4SFHLQGZ",
      "children": [
        {
          "name": "BINE Informationsdienst",
          "id": "KK4A6EHE2TFIRFTJHARTPTKJEDDEQMUL",
          "latitude": "50.7220625",
          "longitude": "7.1109149",
          "sector": "sec_04"
        },
        {
          "name": "Mathematik und Informatik",
          "id": "MUMHZQTT46RJC6VJENYPWHOFCAASU24T",
          "latitude": "52.5205101",
          "longitude": "13.3278376",
          "sector": "sec_04"
        }
      ],
      "latitude": "49.0788756",
      "longitude": "8.3915827",
      "sector": "sec_04"
    },
    {
      "name": "Flensburger Schiffahrtsmuseum",
      "id": "7FXGCKX45SPVXOYIJWEDHL63ICFMZAPW",
      "latitude": "54.79316",
      "longitude": "9.43315",
      "sector": "sec_06"
    },
    {
      "name": "Fliedner-Kulturstiftung Kaiserswerth",
      "id": "4RDDWYXNYFZTLFCEEDSYYPWEOZ73YW27",
      "latitude": "51.2985311",
      "longitude": "6.746963",
      "sector": "sec_02"
    },
    {
      "name": "Flößermuseum Unterrodach. Bibliothek",
      "id": "UBQ43FFASEN2BIHBZFJLAUT62ZW5FP6C",
      "latitude": "50.25026",
      "longitude": "11.38548",
      "sector": "sec_02"
    },
    {
      "name": "Förderverein Historisches Kaufhaus J.H. Büsing Sohn",
      "id": "MMDPPOWIVHHGJHDBOMJ62OUL6FI46P2I",
      "latitude": "53.4848225",
      "longitude": "8.4373135",
      "sector": "sec_06"
    },
    {
      "name": "Forschungsinstitut für Wirtschaftsverfassung und Wettbewerb e.V.",
      "id": "P3MRPMOGL5NRRSXPCG3FX243MEIY3LXQ",
      "children": [
        {
          "name": "Forschungsinstitut für Wirtschaftsverfassung und Wettbewerb e.V. (FIW). Bibliothek",
          "id": "VE4PX44NO5U26QIGPWSNFQJWAQKE4A5D",
          "latitude": "50.9269993",
          "longitude": "6.9621336",
          "sector": "sec_02"
        }
      ],
      "latitude": "50.9269993",
      "longitude": "6.9621336",
      "sector": "sec_04"
    },
    {
      "name": "Forschungsstelle Osteuropa an der Universität Bremen",
      "id": "7CAXYF6DATJQ3PGTWBBXOGSIQRYM7UMX",
      "children": [
        {
          "name": "Forschungsstelle Osteuropa an der Universität Bremen. Bibliothek/Archiv",
          "id": "BT4RFGNSTTJVUCZI5NSRFTKSSC44EZGL",
          "latitude": "53.10999",
          "longitude": "8.8543",
          "sector": "sec_02"
        }
      ],
      "latitude": "53.10999",
      "longitude": "8.8543",
      "sector": "sec_04"
    },
    {
      "name": "Forschungs- und Gedenkstätte Heinrich-Schütz-Haus Bad Köstritz",
      "id": "QDNBHGAAGBX6OGH6KBUFTYRMXLTH3R2R",
      "latitude": "50.9303893",
      "longitude": "12.0112252",
      "sector": "sec_06"
    },
    {
      "name": "Forschungsvorhaben Jung-Stilling",
      "id": "6AD2V634E7TY2W2GW4NU3GQ5L42H2GAC",
      "latitude": "50.8801774",
      "longitude": "8.0277166",
      "sector": "sec_04"
    },
    {
      "name": "Forum Wiedenest e.V.. Bibliothek",
      "id": "NVLXI56UBG6TQPRXXTTUR5KHUAAODKWF",
      "latitude": "51.021669",
      "longitude": "7.6814977",
      "sector": "sec_02"
    },
    {
      "name": "Frankfurter Neue Presse. Zentrale Dienste Redaktion/Archiv",
      "id": "VDP77DLFITP4WNE2LO6OCUVOXBSLO2SA",
      "children": [
        {
          "name": "Bad Vilbeler Neue Presse",
          "id": "K323SGE5XNR4IFU766ZJDKFXBDBOUH4I",
          "latitude": "50.19661",
          "longitude": "8.74564",
          "sector": "sec_01"
        },
        {
          "name": "Höchster Kreisblatt Main Taunus",
          "id": "KGZXGYI3DZCPMAJ35NO7CGIYSOVXYQC7",
          "latitude": "50.0863675",
          "longitude": "8.4460059",
          "sector": "sec_01"
        },
        {
          "name": "Höchster Kreisblatt, westl. Frankfurt",
          "id": "AW6O44UWF4ZTBDVRFVICEJRLLTR7WINX",
          "latitude": "50.1014097",
          "longitude": "8.5461447",
          "sector": "sec_01"
        },
        {
          "name": "Nassauische Neue Presse",
          "id": "2ACJW4PIP2ONIXJFSQ2H45UC7643OA6V",
          "latitude": "50.3868288",
          "longitude": "8.0636053",
          "sector": "sec_01"
        },
        {
          "name": "Neu-Isenburger Neue Presse",
          "id": "WLCUCLPB4IM2RBCP224VIETTEB2P4PKH",
          "latitude": "50.1048",
          "longitude": "8.64697",
          "sector": "sec_01"
        },
        {
          "name": "Taunus Zeitung",
          "id": "BZB3TANLVG5J6QYUZ7OAGE25QIVI4POF",
          "latitude": "50.2276081",
          "longitude": "8.6163761",
          "sector": "sec_01"
        },
        {
          "name": "Usinger Neue Presse",
          "id": "RFX5T2KX4JYXA4CRS22HVLIGV4OUXRYE",
          "latitude": "50.3354777",
          "longitude": "8.5346537",
          "sector": "sec_01"
        }
      ],
      "latitude": "50.1048",
      "longitude": "8.64697",
      "sector": "sec_01"
    },
    {
      "name": "Fränkische Schweiz-Museum Tüchersfeld",
      "id": "27S6T6ZYVNPVQIOJKXJT7LACL4J7YXTR",
      "latitude": "49.7854",
      "longitude": "11.36107",
      "sector": "sec_06"
    },
    {
      "name": "Franz Haniel & Cie. GmbH, Zentralabteilung Gesellschafter + Nachhaltigkeit, Archiv & Dokumentation",
      "id": "S5GQWWGZNMHCVNSDQFT5EKCCBFFSHZWS",
      "latitude": "51.45148",
      "longitude": "6.73383",
      "sector": "sec_01"
    },
    {
      "name": "Franz Liszt - Museum",
      "id": "QHKLR4GMPRPQ44XCC4MQIS2KPOA36NGE",
      "latitude": "49.9406551",
      "longitude": "11.582731",
      "sector": "sec_06"
    },
    {
      "name": "Fraunhofer-Institut für Chemische Technologie (ICT)",
      "id": "SHJOUJVBGTT5F3M7KND7QXKPOTJKZEFH",
      "latitude": "49.01607",
      "longitude": "8.5224",
      "sector": "sec_02"
    },
    {
      "name": "Fraunhofer-Institut für Nachrichtentechnik, Heinrich-Hertz-Institut",
      "id": "XUALRWJWI7P4B5BILIR6FX37OQAQN4C5",
      "latitude": "52.516518",
      "longitude": "13.325225",
      "sector": "sec_04"
    },
    {
      "name": "Fraunhofer-Institut für Produktionstechnik und Automatisierung IPA / Institut für Industrielle Fertigung und Fabrikbetrieb der Universität Stuttgart IFF. Fachinformation und Bibliothek",
      "id": "DYTEC6TBXHROFAFQWCXQ4VRE7TF4I6JG",
      "latitude": "48.74058",
      "longitude": "9.09921",
      "sector": "sec_02"
    },
    {
      "name": "Fraunhofer-Institut für System- und Innovationsforschung (ISI). Bibliothek",
      "id": "IU6E4ZGRLLVB4JF452HDCBGRLFUWARKZ",
      "latitude": "49.02812",
      "longitude": "8.4417",
      "sector": "sec_04"
    },
    {
      "name": "Fraunhofer-Institut für Techno- und Wirtschaftsmathematik ITWM",
      "id": "E3BYEERAZ5EQZE4ZYVAK73LKYVCD4KRR",
      "latitude": "49.4179146",
      "longitude": "7.8011308",
      "sector": "sec_04"
    },
    {
      "name": "Fraunhofer IRB. Bibliothek",
      "id": "EZNCIDIWSNVCYIRVAIHK7ZITYL5LIFDU",
      "latitude": "48.74058",
      "longitude": "9.09921",
      "sector": "sec_02"
    },
    {
      "name": "Freies Deutsches Hochstift - Frankfurter Goethe-Museum. Bibliothek",
      "id": "6MZ5APQTMS5AH2UGHRWBKVAOZ7LSCCMS",
      "latitude": "50.1111722",
      "longitude": "8.6775921",
      "sector": "sec_02"
    },
    {
      "name": "Freie und Hansestadt Hamburg. Behörde für Kultur, Sport und Medien -- Staatsarchiv",
      "id": "APT5OMPRH4PFMCD4XZE5PKO45IGAVTFI",
      "latitude": "53.57491",
      "longitude": "10.06886",
      "sector": "sec_01"
    },
    {
      "name": "Freie und Hansestadt Hamburg, Behörde für Schule und Berufsbildung - Bibliothek Gesundheit",
      "id": "PQ744RRMCBN2KMIXSJA4ZSGMV6V3OFRV",
      "latitude": "53.5402495",
      "longitude": "10.042804",
      "sector": "sec_02"
    },
    {
      "name": "Freilichtmuseum am Kiekeberg",
      "id": "WNJU7VDXJ57USSQNHFGQPYODJQKQIGWV",
      "latitude": "53.43976",
      "longitude": "9.90381",
      "sector": "sec_06"
    },
    {
      "name": "Freimaurermuseum",
      "id": "DN2A6NLT32PJ7KP4GCMK55EGSDWHOFPY",
      "latitude": "53.9954895",
      "longitude": "9.1209764",
      "sector": "sec_06"
    },
    {
      "name": "Freundeskreis Deutsches Auswandererhaus e.V.",
      "id": "UFCBMES7C2ZCG4FMHDQQWO657XKDMZYJ",
      "children": [
        {
          "name": "Deutsches Auswandererhaus",
          "id": "GODPITEAMOSMJYN7GYY5DFK2AAY5TMKW",
          "latitude": "53.54508",
          "longitude": "8.57415",
          "sector": "sec_01"
        }
      ],
      "latitude": "53.55493",
      "longitude": "8.59676",
      "sector": "sec_01"
    },
    {
      "name": "Friedensmuseum \"Brücke von Remagen\"",
      "id": "5QWKQOTZXUVZWYHRGVGP4N5RU3FS646T",
      "latitude": "50.579365",
      "longitude": "7.2340626",
      "sector": "sec_06"
    },
    {
      "name": "friedens räume - mehr als ein museum",
      "id": "C747PC42JFSRWA66XTJICAGLBFX667L5",
      "latitude": "47.5579901",
      "longitude": "9.6610909",
      "sector": "sec_06"
    },
    {
      "name": "Friedrich-Alexander-Universität Erlangen-Nürnberg",
      "id": "BDML5G6LJE7KZ6W3YIV2WWREU57V24RZ",
      "children": [
        {
          "name": "Friedrich-Alexander-Universität Erlangen-Nürnberg. Universitätsarchiv",
          "id": "MAH4RQ5XEZPWAATDQKJDO7O6CVVYPIMH",
          "latitude": "49.596547",
          "longitude": "11.0073701",
          "sector": "sec_01"
        },
        {
          "name": "Universitätsbibliothek Erlangen-Nürnberg",
          "id": "U222JX55KPCVV6QO26ZQKTGCPM6FGKWD",
          "latitude": "49.5966926",
          "longitude": "11.0067129",
          "sector": "sec_02"
        }
      ],
      "latitude": "49.5976974",
      "longitude": "11.0047173",
      "sector": "sec_04"
    },
    {
      "name": "Friedrich-Naumann-Stiftung für die Freiheit. Archiv des Liberalismus",
      "id": "JKOJO7WFWSD2L34RWWHWZ43WWSZ4IVH5",
      "latitude": "51.00504",
      "longitude": "7.56828",
      "sector": "sec_01"
    },
    {
      "name": "Friedrich-Schiller-Universität Jena: Ernst-Haeckel-Haus",
      "id": "7CGH6VVMNN3V26UR5UG2OF7Z4244S6GR",
      "latitude": "50.9245146",
      "longitude": "11.5817766",
      "sector": "sec_06"
    },
    {
      "name": "Friedrich-Schiller-Universität Jena: Mineralogische Sammlung",
      "id": "MXQDDYBHSPDZTYNBDOKV5L745QXOUL6W",
      "latitude": "50.92341",
      "longitude": "11.5808",
      "sector": "sec_06"
    },
    {
      "name": "Friedrich-Schiller-Universität Jena: Phyletisches Museum",
      "id": "ZRSLVV53CK4BS36EB5XQFOKSEKRLSVYM",
      "latitude": "50.9241454",
      "longitude": "11.5837886",
      "sector": "sec_06"
    },
    {
      "name": "Friedrich-von-Hardenberg-Institut für Kulturwissenschaften",
      "id": "LCSLMP35HZAZCAPZD5EEFOZR7SZ5VB2A",
      "latitude": "49.4108",
      "longitude": "8.69909",
      "sector": "sec_04"
    },
    {
      "name": "Friesenstube",
      "id": "2A4BPNUGZRKMWMOUWLKDQB55YAQDJVZF",
      "latitude": "54.640461",
      "longitude": "8.591834",
      "sector": "sec_06"
    },
    {
      "name": "Friesisches Museum",
      "id": "2TAVVIQNRWG3G6KTIIWIDHM7BYYY76GI",
      "latitude": "54.7898348",
      "longitude": "8.8207576",
      "sector": "sec_06"
    },
    {
      "name": "Frisörmuseum",
      "id": "A3AHCWPRKU52QLKUGLHHWD37TTOP5G5V",
      "latitude": "54.477773",
      "longitude": "9.8363712",
      "sector": "sec_06"
    },
    {
      "name": "Fürst Thurn und Taxis Hofbibliothek",
      "id": "FYLFBA272TG3MCVE6NPQISVLTCNDQ3B5",
      "latitude": "49.01482",
      "longitude": "12.09251",
      "sector": "sec_02"
    },
    {
      "name": "Fürst Thurn und Taxis Zentralarchiv/Hofbibliothek",
      "id": "HT7BJUKDAZGV6RUDJFEDOTBOYTCH55UR",
      "latitude": "49.01482",
      "longitude": "12.09251",
      "sector": "sec_01"
    },
    {
      "name": "Garnisonmuseum Ludwigsburg",
      "id": "E3HVB2PEDRNEQ2QJIBNLET6O64CX37UQ",
      "children": [
        {
          "name": "Ludwigsburg",
          "id": "OWWESV4SRBWAU75VGKKF2NKURJZRQANH",
          "latitude": "48.8974783",
          "longitude": "9.1830543",
          "sector": "sec_06"
        }
      ],
      "latitude": "48.8974783",
      "longitude": "9.1830543",
      "sector": "sec_06"
    },
    {
      "name": "Gedenkstätte Ahrensbök",
      "id": "WM4VRUY5SMOTTVGN7C2H5FQIAOPIPBNM",
      "latitude": "54.0235408",
      "longitude": "10.5904312",
      "sector": "sec_06"
    },
    {
      "name": "Gedenkstätte 'Landjuden an der Sieg'",
      "id": "EW37J6IBJBQHO2W3Z5J4PCDWF54GO224",
      "latitude": "50.7978215",
      "longitude": "7.6122939",
      "sector": "sec_06"
    },
    {
      "name": "Gedenkstätte Seelower Höhen",
      "id": "KZDV3E5ZS4Z4KLAKGXQ4UP47I7R5OJSQ",
      "latitude": "52.53538",
      "longitude": "14.39284",
      "sector": "sec_07"
    },
    {
      "name": "GeesthachtMuseum!",
      "id": "4NDN3ICEHN5BU6LMB2TQ3TQ7OC3VZOEN",
      "latitude": "53.43296",
      "longitude": "10.37141",
      "sector": "sec_06"
    },
    {
      "name": "Geheimes Staatsarchiv Preußischer Kulturbesitz",
      "id": "EREXRWXUSYFMJYZHUHHSRQX5SFXG7UJJ",
      "latitude": "52.46068",
      "longitude": "13.29215",
      "sector": "sec_01"
    },
    {
      "name": "Gelehrtenschule des Johanneums. Bibliotheca Johannei",
      "id": "FZUWPXK4TR53SIYHMQFCUI5NKEIT7XT7",
      "latitude": "53.58986",
      "longitude": "10.00673",
      "sector": "sec_02"
    },
    {
      "name": "Gemeindearchiv Assamstadt",
      "id": "DPKAWM2FWBUO4ZH5J3MGPAS5TCFDEQOM",
      "latitude": "49.71193",
      "longitude": "9.54861",
      "sector": "sec_01"
    },
    {
      "name": "Gemeindearchiv Bedburg-Hau",
      "id": "6TGMCSLU7P3SLBMWO5ACRSAEIILPIQ5U",
      "latitude": "51.76258",
      "longitude": "6.18803",
      "sector": "sec_01"
    },
    {
      "name": "Gemeindearchiv Kranenburg",
      "id": "J6TCXLD6DNRXIOQA6AR6RP32TEBSUU5L",
      "latitude": "51.78846",
      "longitude": "6.0111",
      "sector": "sec_01"
    },
    {
      "name": "Gemeindearchiv Südlohn",
      "id": "6U7TOF3OCM4D2ZE55BFDNVDEZEVXPEV6",
      "latitude": "51.93444",
      "longitude": "6.80922",
      "sector": "sec_01"
    },
    {
      "name": "Gemeindearchiv Werbach",
      "id": "VQJPS5WWP5KMUKOBJBQU4YJQVCIPCFYH",
      "latitude": "49.71193",
      "longitude": "9.54861",
      "sector": "sec_01"
    },
    {
      "name": "Gemeindebibliothek Eitorf",
      "id": "Y43N3Y2WL4BM5RFO2N4Z7JMASIGCTJMT",
      "latitude": "50.77134",
      "longitude": "7.45583",
      "sector": "sec_02"
    },
    {
      "name": "Gemeindebibliothek Grünwald",
      "id": "ZMA3ZUTFODKOHBOEDYZY5H7ILNVXPWZV",
      "latitude": "48.0407863",
      "longitude": "11.5246661",
      "sector": "sec_02"
    },
    {
      "name": "Gemeindebibliothek Krailling",
      "id": "YDWP5DISMV6ZIIPQDAP5C3JMDULNLN7G",
      "latitude": "48.09731",
      "longitude": "11.4126",
      "sector": "sec_02"
    },
    {
      "name": "Gemeindebibliothek Ottobrunn",
      "id": "NK6HAYD57WTXVVFTFLCPOQN2LJB7AVWF",
      "latitude": "48.06504",
      "longitude": "11.66592",
      "sector": "sec_02"
    },
    {
      "name": "Gemeindebibliothek Schulzendorf",
      "id": "RJ4E3JKCIYXD7PR5DF3NOIOTMFGE6QVW",
      "latitude": "52.35971",
      "longitude": "13.59288",
      "sector": "sec_02"
    },
    {
      "name": "Gemeindebücherei Kösching",
      "id": "E572H36ECMMWNX7FMPHXN7UJLN5M75EI",
      "latitude": "48.8101821",
      "longitude": "11.499957",
      "sector": "sec_02"
    },
    {
      "name": "Gemeindebücherei Kronshagen",
      "id": "QDNUJPHGOYPVQVUR6VH4QHSAI3D4HZ2F",
      "latitude": "54.33793",
      "longitude": "10.08738",
      "sector": "sec_02"
    },
    {
      "name": "Gemeindebücherei Obersulm",
      "id": "V4NJOGT4466RK4ISDDUJTDODYYSOYIYU",
      "latitude": "49.1331706",
      "longitude": "9.3778248",
      "sector": "sec_02"
    },
    {
      "name": "Gemeindebücherei Satrup",
      "id": "AIBFDWOAF65ORHEERC3ORAU3EVFCKDOT",
      "latitude": "54.69264",
      "longitude": "9.60139",
      "sector": "sec_02"
    },
    {
      "name": "Gemeindebücherei Westoverledingen",
      "id": "XWTXAANCN5O6ZRDRRYPAOSCFMSSEJCN4",
      "children": [
        {
          "name": "Bücherei der Grundschule Ihrhove",
          "id": "FTZODMYTXGYSG6N4WIYWUX7F7RSNUHO3",
          "latitude": "53.1625122",
          "longitude": "7.4580282",
          "sector": "sec_02"
        },
        {
          "name": "Ortsbücherei Flachsmeer",
          "id": "FDS3WSMIYQKRF7LRVQWTSTBG423U6QFD",
          "latitude": "53.1214",
          "longitude": "7.46555",
          "sector": "sec_02"
        },
        {
          "name": "Ortsbücherei Völlenerfehn",
          "id": "LXWGRD4GZFYGFMZA66A4F3JV4QSDZSEI",
          "latitude": "53.10783",
          "longitude": "7.41618",
          "sector": "sec_02"
        }
      ],
      "latitude": "53.16611",
      "longitude": "7.45174",
      "sector": "sec_02"
    },
    {
      "name": "Generaldirektion der Staatlichen Archive Bayerns",
      "id": "IFKIYUTE2IUQL3TTWCOP3VSDPONEEMGD",
      "children": [
        {
          "name": "Generaldirektion der Staatlichen Archive Bayerns. Bayerische Archivschule",
          "id": "HUWI24M3DOKTPDACUKDDO5PTDAAIYTPQ",
          "latitude": "48.1457916",
          "longitude": "11.5818691",
          "sector": "sec_01"
        },
        {
          "name": "Generaldirektion der Staatlichen Archive Bayerns. Schriftleitung Archivalische Zeitschrift",
          "id": "GZH7L34KVDCXKERTTPFE2QKTAV6KWDAG",
          "latitude": "48.1457916",
          "longitude": "11.5818691",
          "sector": "sec_01"
        }
      ],
      "latitude": "48.1457916",
      "longitude": "11.5818691",
      "sector": "sec_01"
    },
    {
      "name": "Geologische Landessammlung Vorpommerns",
      "id": "WKWWY4HPAJRDLRVCTFULTGDMFOSU4ARU",
      "latitude": "54.0929443",
      "longitude": "13.4033259",
      "sector": "sec_06"
    },
    {
      "name": "Geologischer Dienst Nordrhein-Westfalen. Wissenschaftliche Bibliothek",
      "id": "PUKWLGFSG26XAF6WPBOZ5NQCLBRLHGUO",
      "latitude": "51.3408",
      "longitude": "6.53629",
      "sector": "sec_02"
    },
    {
      "name": "Geologisches und Mineralogisches Museum",
      "id": "XLE5LRZSQOF4Z7FEKHH467FZG3V3WYA5",
      "latitude": "54.33694",
      "longitude": "10.12072",
      "sector": "sec_06"
    },
    {
      "name": "Geologisches und Mineralogisches Museum",
      "id": "XMHY2S3CTUKUMYWQTHFVBFCF7UVMD44R",
      "latitude": "54.33694",
      "longitude": "10.12072",
      "sector": "sec_06"
    },
    {
      "name": "Geomuseum der WWU",
      "id": "4SIMRN7UURVVYQBC54N7KHCYX3OQD2WM",
      "latitude": "51.9614794",
      "longitude": "7.6236951",
      "sector": "sec_06"
    },
    {
      "name": "Georg-Eckert-Institut für internationale Schulbuchforschung",
      "id": "4QBE4PST6NYMXHHQ5Z2ROTEF63V7AXGZ",
      "children": [
        {
          "name": "Georg-Eckert-Institut für internationale Schulbuchforschung. Bibliothek",
          "id": "TVISMDCQWZU32DAFTEGZJD4APRNG3HZ2",
          "latitude": "52.26826",
          "longitude": "10.511",
          "sector": "sec_02"
        }
      ],
      "latitude": "52.26826",
      "longitude": "10.511",
      "sector": "sec_04"
    },
    {
      "name": "Georg-Simon-Ohm-Hochschule für angewandte Wissenschaften - Fachhochschule Nürnberg. Hochschulbibliothek",
      "id": "O74KOQ77JVWZHEIXOHNUPPQ5VIKETEW3",
      "children": [
        {
          "name": "Teilbibliothek für Betriebswirtschaft und Sozialwissenschaften",
          "id": "OPJSMA3NUJASPEQYIOY4GTL2XJSCT4CI",
          "latitude": "49.4486",
          "longitude": "11.0956",
          "sector": "sec_02"
        }
      ],
      "latitude": "49.4534506",
      "longitude": "11.0902946",
      "sector": "sec_02"
    },
    {
      "name": "Germanisches Nationalmuseum",
      "id": "TUY45A7ZET5GOCZYKVIVNDGJAM4KSM2L",
      "children": [
        {
          "name": "Germanisches Nationalmuseum. Bibliothek",
          "id": "PJQQWJZ6BBMC2TOLTK5YFZNF64DYA2XP",
          "latitude": "49.4488324",
          "longitude": "11.0766068",
          "sector": "sec_02"
        }
      ],
      "latitude": "49.4476677",
      "longitude": "11.0750603",
      "sector": "sec_06"
    },
    {
      "name": "Geschichtswerkstatt Herrenwyk",
      "id": "6I4BSP66IJ6LGLUU7RBEFVRMPAABMOKS",
      "latitude": "53.9035213",
      "longitude": "10.8050897",
      "sector": "sec_06"
    },
    {
      "name": "Gesellschaft für Deutsche Sprache e.V.",
      "id": "X4BAINY262GBPAAR5VV6NUY5ZQW5UKZA",
      "latitude": "50.0856971",
      "longitude": "8.2420862",
      "sector": "sec_04"
    },
    {
      "name": "Gesellschaft für Medienpädagogik und Kommunikationskultur",
      "id": "NN6U5KQOIDYKATGT2KO4BCLYIU4VJIOE",
      "latitude": "52.0224293",
      "longitude": "8.5349623",
      "sector": "sec_07"
    },
    {
      "name": "GESIS - Leibniz-Institut für Sozialwissenschaften",
      "id": "ESFTMRPKEJ2ZZWUQSXMVEXXTR7CZM3RN",
      "children": [
        {
          "name": "GESIS - Leibniz-Institut für Sozialwissenschaften. Bibliothek Berlin",
          "id": "TCIWOGKR57M767UUW6OH6KSFAJ5XGMUD",
          "latitude": "52.5199483",
          "longitude": "13.382118",
          "sector": "sec_02"
        },
        {
          "name": "GESIS - Leibniz-Institut für Sozialwissenschaften. Bibliothek Köln",
          "id": "ZY434QTM3KAIBRJRH266IPR57GC35OB6",
          "latitude": "50.9426877",
          "longitude": "6.9519141",
          "sector": "sec_02"
        },
        {
          "name": "GESIS - Leibniz-Institut für Sozialwissenschaften. Bibliothek Mannheim",
          "id": "26446GTPQGVYDHYY4SX3IDBRAI6IWESU",
          "latitude": "49.4856223",
          "longitude": "8.4605761",
          "sector": "sec_02"
        }
      ],
      "latitude": "49.4856899",
      "longitude": "8.4628438",
      "sector": "sec_04"
    },
    {
      "name": "Glasmuseum Dorotheenhütte Wolfach",
      "id": "A5HFPA7NXGPDFHTNL5CALSP7EWKNSLBF",
      "latitude": "48.29006",
      "longitude": "8.214",
      "sector": "sec_06"
    },
    {
      "name": "Glockenmuseum und Stadtmuseum Apolda",
      "id": "RY7VZEJGGSDXX6YODJFWTBN3URSV7FKG",
      "latitude": "51.0269486",
      "longitude": "11.5194143",
      "sector": "sec_06"
    },
    {
      "name": "GoetheStadtMuseum Ilmenau",
      "id": "EE6LBKA2UTQNE2MUUGCQ4NVRHT3SVYFA",
      "latitude": "50.68755",
      "longitude": "10.91399",
      "sector": "sec_06"
    },
    {
      "name": "Göschenhaus Grimma-Hohnstädt",
      "id": "CDUPCKWUMBMDX6TPE5ATN2RFIDNCBH2O",
      "latitude": "51.2525",
      "longitude": "12.7316",
      "sector": "sec_06"
    },
    {
      "name": "Gottfried Wilhelm Leibniz Bibliothek - Niedersächsische Landesbibliothek",
      "id": "ZVFWDOJAROVAMTFCAFPSEAXTMRBD35RE",
      "latitude": "52.3653",
      "longitude": "9.73124",
      "sector": "sec_02"
    },
    {
      "name": "Grafik- und Jugendsstil-Plakatsammlung",
      "id": "VPJDKI24XO5X3EJNCAXSZYOYSWITKYY6",
      "latitude": "54.0927083",
      "longitude": "13.3762905",
      "sector": "sec_06"
    },
    {
      "name": "GRASSI Museum für Völkerkunde zu Leipzig. Wissenschaftliche Bibliothek",
      "id": "PVKMWEAO7VIQOPGXELQDNBVZBJAFW7QD",
      "latitude": "51.3373319",
      "longitude": "12.386745",
      "sector": "sec_02"
    },
    {
      "name": "Grenzturm e.V. Verein zur Erhaltung von Denkmälern der Geschichte",
      "id": "CCNEQRILWUL2PSTISV4LRBNMJYGC4EXT",
      "latitude": "54.15317",
      "longitude": "11.75942",
      "sector": "sec_06"
    },
    {
      "name": "Grimme Institut",
      "id": "YZX4BBSPGRIM42YXZEQHGSZ5WDCDOXXX",
      "latitude": "51.6578412",
      "longitude": "7.095933",
      "sector": "sec_07"
    },
    {
      "name": "Großsteingrab Denghoog",
      "id": "FBMQ4X2QLJARRRLH6HGZRG2ABP4VY46G",
      "latitude": "54.934712",
      "longitude": "8.335",
      "sector": "sec_06"
    },
    {
      "name": "Günter Grass-Haus",
      "id": "QKCADUZMN2M3PAMDJ2AAX7U7DTBKLUGB",
      "latitude": "53.8692984",
      "longitude": "10.6905534",
      "sector": "sec_06"
    },
    {
      "name": "Gustaf-Dalmann-Institut für Biblische Landes- und Altertumskunde",
      "id": "R2354GQ5RX6BQQB7RVF6CKRKZT24JEPP",
      "latitude": "54.0956768",
      "longitude": "13.3748",
      "sector": "sec_06"
    },
    {
      "name": "Gutsmuseum Hohenstein",
      "id": "L53F27EMHMY3PUCIP7XVFJXM2CBRMJ6I",
      "latitude": "54.50039",
      "longitude": "9.90851",
      "sector": "sec_06"
    },
    {
      "name": "Guttempler Museum Mildstedt",
      "id": "45KQ55JOLQP762L5AZTIPPPC76SHAUGF",
      "latitude": "54.46762",
      "longitude": "9.10038",
      "sector": "sec_06"
    },
    {
      "name": "Gynäkologische-Geburtshilfliche Sammlung",
      "id": "JLQTVS3IJRKCMQCLWV57J3SQMLMUT42X",
      "latitude": "54.0871243",
      "longitude": "13.4075659",
      "sector": "sec_06"
    },
    {
      "name": "Hamburger Institut für Sozialforschung. Archiv",
      "id": "4HY43NN3VDY3K6RJVJOHPOI7NS7SVVIJ",
      "latitude": "53.56923",
      "longitude": "9.99463",
      "sector": "sec_01"
    },
    {
      "name": "Hamburger Institut für Sozialforschung. Bibliothek",
      "id": "YNUKY424WS3DIH5FCVOTTWTQB2U4PFJH",
      "latitude": "53.56923",
      "longitude": "9.99463",
      "sector": "sec_02"
    },
    {
      "name": "Hamburger Lehrerbibliothek",
      "id": "BYKHFVNEB3SWDVXFY5UIRFRAI7DR5WHB",
      "latitude": "53.57055",
      "longitude": "9.96715",
      "sector": "sec_02"
    },
    {
      "name": "Hamburger Schulmuseum",
      "id": "WJUBIJE4ZCNOAMTFQAGNQJVCIAHQ35ZI",
      "latitude": "53.5505081",
      "longitude": "9.9633238",
      "sector": "sec_06"
    },
    {
      "name": "Hamburgisches Architektur-Archiv d. Hamburgischen Architektenkammer",
      "id": "57YUX7PTSMMPLMXNWWTJNIY5EY4J6OTH",
      "latitude": "53.5454229",
      "longitude": "10.0014869",
      "sector": "sec_01"
    },
    {
      "name": "hamburgmuseum / Museum für Hamburgische Geschichte",
      "id": "JQB5H5SS7CRC6GFRKUGLUC6AJ7QOSJMJ",
      "latitude": "53.5507515",
      "longitude": "9.9741493",
      "sector": "sec_06"
    },
    {
      "name": "Hanf Museum",
      "id": "NDCV65EHUX2KFMPBHRJ2TSPUTBOFBWL4",
      "latitude": "52.5233848",
      "longitude": "13.4172998",
      "sector": "sec_06"
    },
    {
      "name": "Hannah-Arendt-Institut für Totalitarismusforschung e.V. an der TU Dresden. Bibliothek",
      "id": "LE36EEALQ5NKS7ASWFQEFKMLOOMYMYRG",
      "latitude": "51.02943",
      "longitude": "13.72417",
      "sector": "sec_02"
    },
    {
      "name": "Hans-Böckler-Stiftung",
      "id": "ZCHTER33FVM7XXKCFGVOAHJUH2QGPBS7",
      "latitude": "51.2463398",
      "longitude": "6.7740227",
      "sector": "sec_04"
    },
    {
      "name": "Hans-Fallada-Bibliothek",
      "id": "KKO3Q7FAHMNJ7FRGGCSTAMLPPMWYW4GQ",
      "latitude": "53.3368135",
      "longitude": "13.4280001",
      "sector": "sec_02"
    },
    {
      "name": "Hans Kock Stiftung Gut Seekamp",
      "id": "T2WDUYWY3GCT7CVQMLKJZCGHHD5D4FLN",
      "latitude": "54.40981",
      "longitude": "10.16173",
      "sector": "sec_06"
    },
    {
      "name": "Haus der Geschichte Dinkelsbühl",
      "id": "VC5MJS6GR45GHPWLKMVX7SIW76DPQ3LR",
      "latitude": "49.0690439",
      "longitude": "10.3211225",
      "sector": "sec_06"
    },
    {
      "name": "Haus der Natur",
      "id": "S5HOUWKADGHVMN4K4X4QHXVB2IBLE66N",
      "latitude": "54.1882816",
      "longitude": "10.9826021",
      "sector": "sec_06"
    },
    {
      "name": "Haus der Natur",
      "id": "GAHATFSSHR57SNTIQYJTWV2NRQFZ2DGS",
      "latitude": "53.6586574",
      "longitude": "10.1932661",
      "sector": "sec_06"
    },